~V
VERS.              2.0:   CWLS Log ASCII Standard - VERSION 2.0
WRAP.               NO:   One Line per Depth Step

~W
STRT.M             0.0000:  Start Depth
STOP.M         510.0000:  Stop Depth
STEP.M             0.1000:  Step
NULL.          -999.2500:  Null Value
COMP.   Fission Uranium Corp:   Company
WELL.   PLS-22-08:   Well Name
FLD .   Patterson Lake South:   Field
LOC .   Athabasca Basin:   Location
PROV.   Saskatchewan:   Province
CTRY.   Canada:   Country
DATE.   2022-02-14:   Date

~C
DEPT.M      : Depth
GR  .GAPI   : Gamma Ray
RHOB.G/CC   : Bulk Density

~A
    0.0000      68.00     2.4000
    0.1000      69.64     2.4000
    0.2000      71.28     2.4001
    0.3000      69.72     2.4201
    0.4000      70.56     2.4001
    0.5000      71.40     2.4002
    0.6000      68.24     2.4002
    0.7000      69.08     2.4002
    0.8000      69.92     2.4702
    0.9000      70.76     2.4703
    1.0000      71.60     2.4703
    1.1000      70.24     2.4303
    1.2000      70.28     2.4004
    1.3000      70.32     2.4004
    1.4000      70.36     2.4804
    1.5000      70.40     2.4804
    1.6000      70.44     2.4805
    1.7000      70.48     2.4605
    1.8000      70.52     2.4605
    1.9000      70.56     2.4406
    2.0000      70.00     2.4606
    2.1000      70.04     2.4606
    2.2000      70.08     2.4607
    2.3000      70.12     2.4207
    2.4000      70.16     2.4207
    2.5000      70.20     2.4208
    2.6000      70.24     2.4208
    2.7000      70.28     2.4208
    2.8000      70.32     2.4808
    2.9000      70.36     2.4809
    3.0000      72.20     2.4809
    3.1000      72.24     2.4809
    3.2000      72.28     2.4810
    3.3000      72.32     2.4410
    3.4000      72.36     2.4410
    3.5000      72.40     2.4411
    3.6000      72.44     2.4411
    3.7000      72.48     2.4411
    3.8000      72.52     2.4411
    3.9000      72.56     2.4012
    4.0000      69.60     2.4412
    4.1000      72.84     2.4412
    4.2000      72.08     2.4213
    4.3000      71.32     2.4213
    4.4000      70.56     2.4013
    4.5000      69.80     2.4014
    4.6000      73.04     2.4014
    4.7000      72.28     2.4914
    4.8000      71.52     2.4914
    4.9000      70.76     2.4715
    5.0000      70.00     2.4715
    5.1000      71.04     2.4715
    5.2000      70.28     2.4516
    5.3000      73.52     2.4516
    5.4000      72.76     2.4316
    5.5000      72.00     2.4317
    5.6000      71.24     2.4317
    5.7000      70.48     2.4117
    5.8000      73.71     2.4117
    5.9000      72.95     2.4118
    6.0000      72.19     2.4918
    6.1000      73.23     2.4918
    6.2000      72.47     2.4719
    6.3000      71.71     2.4719
    6.4000      70.95     2.4719
    6.5000      74.19     2.4520
    6.6000      73.43     2.4520
    6.7000      72.67     2.4320
    6.8000      71.91     2.4320
    6.9000      71.15     2.4321
    7.0000      74.39     2.4121
    7.1000      71.43     2.4121
    7.2000      74.67     2.4922
    7.3000      73.91     2.4922
    7.4000      73.15     2.4922
    7.5000      72.39     2.4723
    7.6000      71.63     2.4723
    7.7000      74.87     2.4723
    7.8000      74.11     2.4523
    7.9000      73.35     2.4524
    8.0000      72.59     2.4324
    8.1000      73.63     2.4324
    8.2000      72.87     2.4325
    8.3000      72.10     2.4325
    8.4000      71.34     2.4925
    8.5000      74.58     2.4926
    8.6000      73.82     2.4926
    8.7000      73.06     2.4926
    8.8000      72.30     2.4926
    8.9000      71.54     2.4527
    9.0000      74.78     2.4527
    9.1000      71.82     2.4527
    9.2000      75.06     2.4528
    9.3000      74.30     2.4528
    9.4000      73.54     2.4128
    9.5000      72.78     2.4129
    9.6000      72.02     2.4129
    9.7000      75.26     2.4129
    9.8000      74.49     2.4129
    9.9000      73.73     2.4730
   10.0000      72.97     2.4730
   10.1000      74.01     2.4730
   10.2000      73.25     2.4731
   10.3000      72.49     2.4731
   10.4000      75.73     2.4331
   10.5000      74.97     2.4332
   10.6000      74.21     2.4332
   10.7000      73.45     2.4332
   10.8000      72.69     2.4332
   10.9000      75.93     2.4333
   11.0000      75.16     2.4933
   11.1000      76.20     2.4933
   11.2000      75.44     2.4934
   11.3000      74.68     2.4934
   11.4000      73.92     2.4934
   11.5000      73.16     2.4535
   11.6000      76.40     2.4535
   11.7000      75.64     2.4535
   11.8000      74.88     2.4535
   11.9000      74.12     2.4536
   12.0000      73.35     2.4136
   12.1000      74.39     2.4136
   12.2000      73.63     2.4137
   12.3000      72.87     2.4137
   12.4000      76.11     2.4137
   12.5000      75.35     2.4738
   12.6000      74.59     2.4738
   12.7000      73.83     2.4738
   12.8000      73.06     2.4738
   12.9000      76.30     2.4739
   13.0000      75.54     2.4339
   13.1000      76.58     2.4339
   13.2000      75.82     2.4340
   13.3000      75.06     2.4340
   13.4000      74.30     2.4340
   13.5000      73.53     2.4941
   13.6000      76.77     2.4941
   13.7000      76.01     2.4941
   13.8000      75.25     2.4941
   13.9000      74.49     2.4942
   14.0000      73.73     2.4542
   14.1000      74.77     2.4542
   14.2000      74.00     2.4543
   14.3000      77.24     2.4543
   14.4000      76.48     2.4543
   14.5000      75.72     2.4144
   14.6000      74.96     2.4144
   14.7000      74.20     2.4144
   14.8000      77.43     2.4144
   14.9000      76.67     2.4145
   15.0000      75.91     2.4745
   15.1000      76.95     2.4745
   15.2000      76.19     2.4746
   15.3000      75.42     2.4746
   15.4000      74.66     2.4746
   15.5000      77.90     2.4747
   15.6000      77.14     2.4347
   15.7000      76.38     2.4347
   15.8000      75.62     2.4347
   15.9000      74.85     2.4348
   16.0000      78.09     2.4348
   16.1000      75.13     2.4948
   16.2000      77.57     2.4349
   16.3000      76.01     2.4749
   16.4000      74.44     2.4149
   16.5000      76.88     2.4150
   16.6000      75.32     2.4950
   16.7000      77.76     2.4950
   16.8000      76.19     2.4950
   16.9000      74.63     2.4751
   17.0000      77.07     2.4751
   17.1000      77.31     2.4551
   17.2000      75.75     2.4552
   17.3000      78.18     2.4552
   17.4000      76.62     2.4352
   17.5000      75.06     2.4353
   17.6000      77.50     2.4153
   17.7000      75.93     2.4153
   17.8000      78.37     2.4153
   17.9000      76.81     2.4954
   18.0000      75.25     2.4954
   18.1000      75.48     2.4954
   18.2000      77.92     2.4755
   18.3000      76.36     2.4755
   18.4000      78.80     2.4555
   18.5000      77.23     2.4556
   18.6000      75.67     2.4556
   18.7000      78.11     2.4356
   18.8000      76.54     2.4356
   18.9000      78.98     2.4057
   19.0000      79.22     2.4057
   19.1000      77.66     2.4057
   19.2000      76.09     2.4858
   19.3000      78.53     2.4858
   19.4000      76.97     2.4658
   19.5000      79.40     2.4659
   19.6000      77.84     2.4659
   19.7000      76.28     2.4459
   19.8000      78.71     2.4459
   19.9000      77.15     2.4260
   20.0000      77.39     2.4260
   20.1000      75.83     2.4260
   20.2000      78.26     2.4061
   20.3000      76.70     2.4061
   20.4000      79.14     2.4061
   20.5000      77.57     2.4861
   20.6000      76.01     2.4862
   20.7000      78.45     2.4662
   20.8000      76.88     2.4662
   20.9000      79.32     2.4663
   21.0000      79.56     2.4463
   21.1000      77.99     2.4463
   21.2000      76.43     2.4264
   21.3000      78.86     2.4264
   21.4000      77.30     2.4264
   21.5000      79.74     2.4065
   21.6000      78.17     2.4065
   21.7000      76.61     2.4865
   21.8000      79.05     2.4865
   21.9000      77.48     2.4866
   22.0000      77.72     2.4666
   22.1000      80.15     2.4666
   22.2000      78.59     2.4667
   22.3000      77.03     2.4467
   22.4000      79.46     2.4467
   22.5000      77.90     2.4268
   22.6000      80.34     2.4268
   22.7000      78.77     2.4268
   22.8000      77.21     2.4068
   22.9000      79.64     2.4069
   23.0000      79.88     2.4869
   23.1000      78.31     2.4869
   23.2000      80.75     2.4870
   23.3000      79.19     2.4670
   23.4000      77.62     2.4670
   23.5000      80.06     2.4471
   23.6000      78.49     2.4471
   23.7000      80.93     2.4471
   23.8000      79.36     2.4271
   23.9000      77.80     2.4272
   24.0000      78.04     2.4072
   24.1000      80.47     2.4072
   24.2000      78.91     2.4073
