~V
VERS.              2.0:   CWLS Log ASCII Standard - VERSION 2.0
WRAP.               NO:   One Line per Depth Step

~W
STRT.M             0.0000:  Start Depth
STOP.M         510.0000:  Stop Depth
STEP.M             0.1000:  Step
NULL.          -999.2500:  Null Value
COMP.   Fission Uranium Corp:   Company
WELL.   PLS-22-08:   Well Name
FLD .   Patterson Lake South:   Field
LOC .   Athabasca Basin:   Location
PROV.   Saskatchewan:   Province
CTRY.   Canada:   Country
DATE.   2022-02-14:   Date

~C
DEPT.M      : Depth
GR  .GAPI   : Gamma Ray
RHOB.G/CC   : Bulk Density

~A
# ...
  170.1000      65.65     2.4610
  170.2000      63.21     2.4611
  170.3000      64.77     2.4611
  170.4000      66.33     2.4611
  170.5000      63.90     2.5211
  170.6000      65.46     2.5212
  170.7000      63.02     2.5212
  170.8000      64.58     2.5212
  170.9000      66.14     2.5213
  171.0000      63.70     2.4813
  171.1000      63.07     2.4813
  171.2000      64.63     2.4814
  171.3000      66.19     2.4814
  171.4000      63.75     2.4814
  171.5000      65.31     2.5414
  171.6000      62.87     2.5415
  171.7000      64.43     2.5415
  171.8000      66.00     2.5415
  171.9000      63.56     2.5416
  172.0000      65.12     2.5416
  172.1000      64.48     2.5016
  172.2000      62.04     2.5017
  172.3000      63.61     2.5017
  172.4000      65.17     2.5017
  172.5000      62.73     2.5017
  172.6000      64.29     2.4618
  172.7000      61.85     2.4618
  172.8000      63.41     2.4618
  172.9000      64.98     2.4619
  173.0000      62.54     2.4619
  173.1000      61.90     2.5219
  173.2000      63.46     2.5220
  173.3000      65.03     2.5220
  173.4000      62.59     2.5220
  173.5000      64.15     2.5220
  173.6000      61.71     2.4821
  173.7000      63.27     2.4821
  173.8000      64.84     2.4821
  173.9000      62.40     2.4822
  174.0000      63.96     2.4822
  174.1000      63.32     2.5422
  174.2000      64.88     2.5423
  174.3000      62.45     2.5423
  174.4000      64.01     2.5423
  174.5000      61.57     2.5423
  174.6000      63.13     2.5024
  174.7000      64.70     2.5024
  174.8000      62.26     2.5024
  174.9000      63.82     2.5025
  175.0000      61.38     2.5025
  175.1000      64.75     2.4625
  175.2000      62.31     2.4626
  175.3000      63.87     2.4626
  175.4000      61.43     2.4626
  175.5000      63.00     2.4626
  175.6000      64.56     2.5227
  175.7000      62.12     2.5227
  175.8000      63.69     2.5227
  175.9000      61.25     2.5228
  176.0000      62.81     2.5228
  176.1000      62.17     2.5228
  176.2000      63.74     2.4829
  176.3000      61.30     2.4829
  176.4000      62.86     2.4829
  176.5000      60.43     2.4829
  176.6000      61.99     2.4830
  176.7000      63.55     2.5430
  176.8000      61.11     2.5430
  176.9000      62.68     2.5431
  177.0000      60.24     2.5431
  177.1000      63.60     2.5431
  177.2000      61.17     2.5032
  177.3000      62.73     2.5032
  177.4000      60.29     2.5032
  177.5000      61.86     2.5032
  177.6000      63.42     2.5033
  177.7000      60.98     2.4633
  177.8000      62.55     2.4633
  177.9000      60.11     2.4634
  178.0000      61.67     2.4634
  178.1000      61.04     2.4634
  178.2000      62.60     2.5235
  178.3000      60.16     2.5235
  178.4000      61.73     2.5235
  178.5000      63.29     2.5235
  178.6000      60.86     2.5236
  178.7000      62.42     2.4836
  178.8000      59.98     2.4836
  178.9000      61.55     2.4837
  179.0000      63.11     2.4837
  179.1000      62.47     2.4837
  179.2000      60.04     2.5438
  179.3000      61.60     2.5438
  179.4000      63.17     2.5438
  179.5000      60.73     2.5438
  179.6000      62.29     2.5439
  179.7000      59.86     2.5039
  179.8000      61.42     2.5039
  179.9000      62.99     2.5040
  180.0000      60.55     2.5040
  180.1000      59.91     2.5040
  180.2000      61.48     2.5041
  180.3000      59.04     2.4641
  180.4000      60.61     2.4641
  180.5000      62.17     2.4641
  180.6000      59.74     2.4642
  180.7000      61.30     2.4642
  180.8000      58.86     2.5242
  180.9000      60.43     2.5243
  181.0000      61.99     2.5243
  181.1000      61.36     2.5243
  181.2000      58.92     2.5244
  181.3000      60.49     2.4844
  181.4000      62.05     2.4844
  181.5000      59.62     2.4844
  181.6000      61.18     2.4845
  181.7000      58.75     2.4845
  181.8000      60.31     2.5445
  181.9000      61.87     2.5446
  182.0000      59.44     2.5446
  182.1000      58.80     2.5446
  182.2000      60.37     2.5447
  182.3000      61.93     2.5047
  182.4000      59.50     2.5047
  182.5000      61.06     2.5047
  182.6000      58.63     2.5048
  182.7000      60.19     2.5048
  182.8000      61.76     2.4648
  182.9000      59.32     2.4649
  183.0000      60.89     2.4649
  183.1000      60.26     2.4649
  183.2000      61.82     2.4650
  183.3000      59.39     2.5250
  183.4000      60.95     2.5250
  183.5000      58.52     2.5250
  183.6000      60.08     2.5251
  183.7000      61.65     2.5251
  183.8000      59.21     2.4851
  183.9000      60.78     2.4852
  184.0000      58.34     2.4852
  184.1000      57.71     2.4852
  184.2000      59.28     2.4853
  184.3000      60.84     2.4853
  184.4000      58.41     2.5453
  184.5000      59.97     2.5453
  184.6000      57.54     2.5454
  184.7000      59.11     2.5454
  184.8000      60.67     2.5454
  184.9000      58.24     2.5055
  185.0000      59.80     2.5055
  185.1000      59.17     2.5055
  185.2000      60.74     2.5056
  185.3000      58.30     2.5056
  185.4000      59.87     2.4656
  185.5000      57.43     2.4656
  185.6000      59.00     2.4657
  185.7000      60.57     2.4657
  185.8000      58.13     2.4657
  185.9000      59.70     2.5258
  186.0000      57.27     2.5258
  186.1000      60.63     2.5258
  186.2000      58.20     2.5259
  186.3000      59.77     2.5259
  186.4000      57.33     2.4859
  186.5000      58.90     2.4859
  186.6000      60.47     2.4860
  186.7000      58.03     2.4860
  186.8000      59.60     2.4860
  186.9000      57.17     2.5461
  187.0000      58.73     2.5461
  187.1000      58.10     2.5461
  187.2000      59.67     2.5462
  187.3000      57.23     2.5462
  187.4000      58.80     2.5062
  187.5000      60.37     2.5062
  187.6000      57.94     2.5063
  187.7000      59.50     2.5063
  187.8000      57.07     2.5063
  187.9000      58.64     2.4664
  188.0000      60.21     2.4664
  188.1000      59.57     2.4664
  188.2000      57.14     2.4665
  188.3000      58.71     2.4665
  188.4000      56.28     2.5265
  188.5000      57.84     2.5265
  188.6000      59.41     2.5266
  188.7000      56.98     2.5266
  188.8000      58.55     2.5266
  188.9000      56.11     2.5267
  189.0000      57.68     2.4867
  189.1000      57.05     2.4867
  189.2000      58.62     2.4868
  189.3000      56.19     2.4868
  189.4000      57.75     2.4868
  189.5000      59.32     2.5468
  189.6000      56.89     2.5469
  189.7000      58.46     2.5469
  189.8000      56.03     2.5469
  189.9000      57.59     2.5470
  190.0000      59.16     2.5070
  190.1000      58.53     2.5070
  190.2000      56.10     2.5071
  190.3000      57.67     2.5071
  190.4000      59.24     2.5071
  190.5000      56.81     2.4671
  190.6000      58.37     2.4672
  190.7000      55.94     2.4672
  190.8000      57.51     2.4672
  190.9000      59.08     2.4673
  191.0000      56.65     2.5273
  191.1000      56.02     2.5273
  191.2000      57.59     2.5274
  191.3000      59.16     2.5274
  191.4000      56.72     2.5274
  191.5000      58.29     2.4874
  191.6000      55.86     2.4875
  191.7000      57.43     2.4875
  191.8000      59.00     2.4875
  191.9000      56.57     2.4876
  192.0000      58.14     2.5476
  192.1000      57.51     2.5476
  192.2000      55.08     2.5477
  192.3000      56.65     2.5477
  192.4000      58.22     2.5477
  192.5000      55.79     2.5077
  192.6000      57.36     2.5078
  192.7000      54.93     2.5078
  192.8000      56.50     2.5078
  192.9000      58.07     2.5079
  193.0000      55.64     2.5079
  193.1000      55.01     2.4679
  193.2000      56.58     2.4680
  193.3000      58.15     2.4680
  193.4000      55.72     2.4680
  193.5000      57.29     2.4680
  193.6000      54.86     2.5281
  193.7000      56.43     2.5281
  193.8000      58.00     2.5281
  193.9000      55.57     2.5282
  194.0000      57.14     2.5282
  194.1000      56.51     2.4882
  194.2000      58.08     2.4883
  194.3000      55.65     2.4883
