~V
VERS.              2.0:   CWLS Log ASCII Standard - VERSION 2.0
WRAP.               NO:   One Line per Depth Step

~W
STRT.M             0.0000:  Start Depth
STOP.M         510.0000:  Stop Depth
STEP.M             0.1000:  Step
NULL.          -999.2500:  Null Value
COMP.   Fission Uranium Corp:   Company
WELL.   PLS-22-08:   Well Name
FLD .   Patterson Lake South:   Field
LOC .   Athabasca Basin:   Location
PROV.   Saskatchewan:   Province
CTRY.   Canada:   Country
DATE.   2022-02-14:   Date

~C
DEPT.M      : Depth
GR  .GAPI   : Gamma Ray
RHOB.G/CC   : Bulk Density

~A
# ...
  486.0000      64.98     2.6058
  486.1000      65.74     2.6058
  486.2000      62.50     2.6059
  486.3000      63.27     2.5859
  486.4000      64.03     2.5859
  486.5000      64.79     2.5660
  486.6000      65.55     2.5660
  486.7000      62.31     2.5660
  486.8000      63.08     2.5460
  486.9000      63.84     2.5461
  487.0000      62.40     2.6261
  487.1000      63.16     2.6261
  487.2000      63.92     2.6262
  487.3000      64.69     2.6062
  487.4000      65.45     2.6062
  487.5000      62.21     2.5863
  487.6000      62.97     2.5863
  487.7000      63.73     2.5863
  487.8000      64.50     2.5663
  487.9000      65.26     2.5664
  488.0000      63.82     2.5664
  488.1000      64.58     2.5464
  488.2000      61.34     2.5465
  488.3000      62.11     2.6265
  488.4000      62.87     2.6265
  488.5000      63.63     2.6266
  488.6000      64.39     2.6066
  488.7000      61.16     2.6066
  488.8000      61.92     2.5866
  488.9000      62.68     2.5867
  489.0000      61.24     2.5867
  489.1000      62.01     2.5667
  489.2000      62.77     2.5668
  489.3000      63.53     2.5468
  489.4000      64.29     2.5468
  489.5000      61.06     2.5469
  489.6000      61.82     2.6269
  489.7000      62.58     2.6269
  489.8000      63.34     2.6069
  489.9000      64.11     2.6070
  490.0000      62.67     2.6070
  490.1000      63.43     2.5870
  490.2000      64.20     2.5871
  490.3000      60.96     2.5871
  490.4000      61.72     2.5671
  490.5000      62.48     2.5672
  490.6000      63.25     2.5472
  490.7000      64.01     2.5472
  490.8000      60.77     2.5472
  490.9000      61.54     2.6273
  491.0000      64.10     2.6273
  491.1000      60.86     2.6073
  491.2000      61.63     2.6074
  491.3000      62.39     2.6074
  491.4000      63.15     2.5874
  491.5000      63.92     2.5875
  491.6000      60.68     2.5675
  491.7000      61.44     2.5675
  491.8000      62.21     2.5675
  491.9000      62.97     2.5476
  492.0000      61.53     2.5476
  492.1000      62.30     2.6276
  492.2000      63.06     2.6277
  492.3000      59.82     2.6277
  492.4000      60.59     2.6077
  492.5000      61.35     2.6078
  492.6000      62.11     2.6078
  492.7000      62.88     2.5878
  492.8000      59.64     2.5878
  492.9000      60.40     2.5679
  493.0000      62.97     2.5679
  493.1000      59.73     2.5679
  493.2000      60.50     2.5480
  493.3000      61.26     2.5480
  493.4000      62.02     2.6280
  493.5000      62.79     2.6281
  493.6000      59.55     2.6281
  493.7000      60.31     2.6081
  493.8000      61.08     2.6081
  493.9000      61.84     2.5882
  494.0000      60.41     2.5882
  494.1000      61.17     2.5882
  494.2000      61.93     2.5683
  494.3000      62.70     2.5683
  494.4000      59.46     2.5683
  494.5000      60.23     2.5484
  494.6000      60.99     2.5484
  494.7000      61.76     2.6284
  494.8000      62.52     2.6284
  494.9000      59.28     2.6285
  495.0000      61.85     2.6085
  495.1000      62.61     2.6085
  495.2000      59.38     2.5886
  495.3000      60.14     2.5886
  495.4000      60.91     2.5886
  495.5000      61.67     2.5687
  495.6000      62.44     2.5687
  495.7000      59.20     2.5487
  495.8000      59.97     2.5487
  495.9000      60.73     2.5488
  496.0000      59.30     2.6288
  496.1000      60.06     2.6288
  496.2000      60.83     2.6089
  496.3000      61.59     2.6089
  496.4000      58.35     2.6089
  496.5000      59.12     2.5890
  496.6000      59.88     2.5890
  496.7000      60.65     2.5890
  496.8000      61.42     2.5690
  496.9000      58.18     2.5691
  497.0000      60.75     2.5491
  497.1000      61.51     2.5491
  497.2000      58.28     2.5492
  497.3000      59.04     2.6292
  497.4000      59.81     2.6292
  497.5000      60.57     2.6093
  497.6000      61.34     2.6093
  497.7000      58.10     2.6093
  497.8000      58.87     2.5893
  497.9000      59.63     2.5894
  498.0000      58.20     2.5694
  498.1000      58.96     2.5694
  498.2000      59.73     2.5695
  498.3000      60.50     2.5495
  498.4000      61.26     2.5495
  498.5000      58.03     2.6296
  498.6000      58.79     2.6296
  498.7000      59.56     2.6296
  498.8000      60.33     2.6096
  498.9000      61.09     2.6097
  499.0000      59.66     2.6097
  499.1000      60.42     2.5897
  499.2000      61.19     2.5898
  499.3000      57.96     2.5698
  499.4000      58.72     2.5698
  499.5000      59.49     2.5699
  499.6000      60.25     2.5499
  499.7000      61.02     2.5499
  499.8000      57.79     2.6299
  499.9000      58.55     2.6300
  500.0000      57.12     2.6300
  500.1000      57.89     2.6100
  500.2000      58.65     2.6101
  500.3000      59.42     2.5901
  500.4000      60.19     2.5901
  500.5000      56.95     2.5902
  500.6000      57.72     2.5702
  500.7000      58.49     2.5702
  500.8000      59.25     2.5702
  500.9000      60.02     2.5503
  501.0000      58.59     2.5503
  501.1000      59.35     2.6303
  501.2000      60.12     2.6304
  501.3000      56.89     2.6304
  501.4000      57.65     2.6104
  501.5000      58.42     2.6105
  501.6000      59.19     2.5905
  501.7000      59.96     2.5905
  501.8000      56.72     2.5905
  501.9000      57.49     2.5706
  502.0000      60.06     2.5706
  502.1000      56.82     2.5506
  502.2000      57.59     2.5507
  502.3000      58.36     2.5507
  502.4000      59.13     2.6307
  502.5000      59.89     2.6308
  502.6000      56.66     2.6108
  502.7000      57.43     2.6108
  502.8000      58.20     2.6108
  502.9000      58.97     2.5909
  503.0000      57.53     2.5909
  503.1000      58.30     2.5909
  503.2000      59.07     2.5710
  503.3000      59.84     2.5710
  503.4000      56.60     2.5510
  503.5000      57.37     2.5511
  503.6000      58.14     2.5511
  503.7000      58.91     2.6311
  503.8000      59.68     2.6311
  503.9000      56.45     2.6112
  504.0000      59.01     2.6112
  504.1000      55.78     2.6112
  504.2000      56.55     2.5913
  504.3000      57.32     2.5913
  504.4000      58.09     2.5713
  504.5000      58.86     2.5714
  504.6000      55.62     2.5714
  504.7000      56.39     2.5514
  504.8000      57.16     2.5514
  504.9000      57.93     2.6315
  505.0000      56.50     2.6315
  505.1000      57.27     2.6315
  505.2000      58.04     2.6116
  505.3000      58.81     2.6116
  505.4000      55.57     2.6116
  505.5000      56.34     2.5917
  505.6000      57.11     2.5917
  505.7000      57.88     2.5717
  505.8000      58.65     2.5717
  505.9000      55.42     2.5718
  506.0000      57.99     2.5518
  506.1000      58.76     2.5518
  506.2000      55.53     2.6319
  506.3000      56.30     2.6319
  506.4000      57.07     2.6319
  506.5000      57.84     2.6120
  506.6000      58.61     2.6120
  506.7000      55.38     2.5920
  506.8000      56.14     2.5920
  506.9000      56.91     2.5921
  507.0000      55.48     2.5721
  507.1000      56.25     2.5721
  507.2000      57.02     2.5722
  507.3000      57.79     2.5522
  507.4000      58.56     2.5522
  507.5000      55.33     2.6323
  507.6000      56.10     2.6323
  507.7000      56.87     2.6323
  507.8000      57.64     2.6123
  507.9000      58.41     2.6124
  508.0000      56.98     2.5924
  508.1000      57.76     2.5924
  508.2000      54.53     2.5925
  508.3000      55.30     2.5725
  508.4000      56.07     2.5725
  508.5000      56.84     2.5526
  508.6000      57.61     2.5526
  508.7000      54.38     2.5526
  508.8000      55.15     2.6326
  508.9000      55.92     2.6327
  509.0000      54.49     2.6127
  509.1000      55.26     2.6127
  509.2000      56.03     2.6128
  509.3000      56.80     2.5928
  509.4000      57.57     2.5928
  509.5000      54.35     2.5929
  509.6000      55.12     2.5729
  509.7000      55.89     2.5729
  509.8000      56.66     2.5529
  509.9000      57.43     2.5530
