~V
VERS.              2.0:   CWLS Log ASCII Standard - VERSION 2.0
WRAP.               NO:   One Line per Depth Step

~W
STRT.M             0.0000:  Start Depth
STOP.M         510.0000:  Stop Depth
STEP.M             0.1000:  Step
NULL.          -999.2500:  Null Value
COMP.   Fission Uranium Corp:   Company
WELL.   PLS-22-08:   Well Name
FLD .   Patterson Lake South:   Field
LOC .   Athabasca Basin:   Location
PROV.   Saskatchewan:   Province
CTRY.   Canada:   Country
DATE.   2022-02-14:   Date

~C
DEPT.M      : Depth
GR  .GAPI   : Gamma Ray
RHOB.G/CC   : Bulk Density

~A
# ...
  218.7000      51.93     2.4756
  218.8000      49.52     2.4756
  218.9000      51.11     2.4757
  219.0000      52.69     2.4757
  219.1000      52.08     2.4757
  219.2000      49.67     2.5358
  219.3000      51.26     2.5358
  219.4000      52.84     2.5358
  219.5000      50.43     2.5358
  219.6000      52.02     2.5359
  219.7000      49.61     2.4959
  219.8000      51.19     2.4959
  219.9000      52.78     2.4960
  220.0000      50.37     2.4960
  220.1000      49.76     2.4960
  220.2000      51.34     2.5561
  220.3000      48.93     2.5561
  220.4000      50.52     2.5561
  220.5000      52.11     2.5561
  220.6000      49.70     2.5562
  220.7000      51.28     2.5162
  220.8000      48.87     2.5162
  220.9000      50.46     2.5163
  221.0000      52.05     2.5163
  221.1000      51.44     2.5163
  221.2000      49.03     2.4764
  221.3000      50.61     2.4764
  221.4000      52.20     2.4764
  221.5000      49.79     2.4764
  221.6000      51.38     2.4765
  221.7000      48.97     2.5365
  221.8000      50.56     2.5365
  221.9000      52.15     2.5366
  222.0000      49.74     2.5366
  222.1000      49.13     2.5366
  222.2000      50.72     2.4967
  222.3000      52.31     2.4967
  222.4000      49.89     2.4967
  222.5000      51.48     2.4967
  222.6000      49.07     2.4968
  222.7000      50.66     2.5568
  222.8000      52.25     2.5568
  222.9000      49.84     2.5569
  223.0000      51.43     2.5569
  223.1000      50.82     2.5569
  223.2000      52.41     2.5570
  223.3000      50.00     2.5170
  223.4000      51.59     2.5170
  223.5000      49.18     2.5170
  223.6000      50.78     2.5171
  223.7000      52.37     2.5171
  223.8000      49.96     2.4771
  223.9000      51.55     2.4772
  224.0000      49.14     2.4772
  224.1000      48.53     2.4772
  224.2000      50.12     2.4773
  224.3000      51.71     2.5373
  224.4000      49.30     2.5373
  224.5000      50.89     2.5373
  224.6000      48.48     2.5374
  224.7000      50.08     2.5374
  224.8000      51.67     2.4974
  224.9000      49.26     2.4975
  225.0000      50.85     2.4975
  225.1000      50.24     2.4975
  225.2000      51.83     2.4976
  225.3000      49.42     2.5576
  225.4000      51.02     2.5576
  225.5000      48.61     2.5576
  225.6000      50.20     2.5577
  225.7000      51.79     2.5577
  225.8000      49.38     2.5177
  225.9000      50.98     2.5178
  226.0000      48.57     2.5178
  226.1000      51.96     2.5178
  226.2000      49.55     2.5179
  226.3000      51.15     2.4779
  226.4000      48.74     2.4779
  226.5000      50.33     2.4779
  226.6000      51.92     2.4780
  226.7000      49.52     2.4780
  226.8000      51.11     2.5380
  226.9000      48.70     2.5381
  227.0000      50.30     2.5381
  227.1000      49.69     2.5381
  227.2000      51.28     2.5382
  227.3000      48.88     2.5382
  227.4000      50.47     2.4982
  227.5000      52.06     2.4982
  227.6000      49.66     2.4983
  227.7000      51.25     2.4983
  227.8000      48.84     2.4983
  227.9000      50.44     2.5584
  228.0000      52.03     2.5584
  228.1000      51.43     2.5584
  228.2000      49.02     2.5585
  228.3000      50.61     2.5585
  228.4000      48.21     2.5185
  228.5000      49.80     2.5185
  228.6000      51.40     2.5186
  228.7000      48.99     2.5186
  228.8000      50.59     2.5186
  228.9000      48.18     2.4787
  229.0000      49.78     2.4787
  229.1000      49.17     2.4787
  229.2000      50.76     2.4788
  229.3000      48.36     2.4788
  229.4000      49.95     2.5388
  229.5000      51.55     2.5388
  229.6000      49.14     2.5389
  229.7000      50.74     2.5389
  229.8000      48.34     2.5389
  229.9000      49.93     2.4990
  230.0000      51.53     2.4990
  230.1000      50.92     2.4990
  230.2000      48.52     2.4991
  230.3000      50.11     2.4991
  230.4000      51.71     2.5591
  230.5000      49.30     2.5591
  230.6000      50.90     2.5592
  230.7000      48.50     2.5592
  230.8000      50.09     2.5592
  230.9000      51.69     2.5193
  231.0000      49.29     2.5193
  231.1000      48.68     2.5193
  231.2000      50.28     2.5194
  231.3000      51.87     2.5194
  231.4000      49.47     2.5194
  231.5000      51.07     2.4794
  231.6000      48.66     2.4795
  231.7000      50.26     2.4795
  231.8000      51.86     2.4795
  231.9000      49.46     2.4796
  232.0000      51.05     2.5396
  232.1000      50.45     2.5396
  232.2000      48.05     2.5397
  232.3000      49.64     2.5397
  232.4000      51.24     2.5397
  232.5000      48.84     2.4997
  232.6000      50.44     2.4998
  232.7000      48.03     2.4998
  232.8000      49.63     2.4998
  232.9000      51.23     2.4999
  233.0000      48.83     2.5599
  233.1000      48.23     2.5599
  233.2000      49.82     2.5600
  233.3000      51.42     2.5600
  233.4000      49.02     2.5600
  233.5000      50.62     2.5200
  233.6000      48.22     2.5201
  233.7000      49.81     2.5201
  233.8000      51.41     2.5201
  233.9000      49.01     2.5202
  234.0000      50.61     2.4802
  234.1000      50.01     2.4802
  234.2000      51.61     2.4803
  234.3000      49.21     2.4803
  234.4000      50.81     2.4803
  234.5000      48.41     2.5403
  234.6000      50.00     2.5404
  234.7000      51.60     2.5404
  234.8000      49.20     2.5404
  234.9000      50.80     2.5405
  235.0000      48.40     2.5005
  235.1000      51.80     2.5005
  235.2000      49.40     2.5006
  235.3000      51.00     2.5006
  235.4000      48.60     2.5006
  235.5000      50.20     2.5006
  235.6000      51.80     2.5607
  235.7000      49.40     2.5607
  235.8000      51.00     2.5607
  235.9000      48.60     2.5608
  236.0000      50.20     2.5608
  236.1000      49.60     2.5208
  236.2000      51.20     2.5209
  236.3000      48.80     2.5209
  236.4000      50.40     2.5209
  236.5000      48.00     2.5209
  236.6000      49.60     2.4810
  236.7000      51.20     2.4810
  236.8000      48.81     2.4810
  236.9000      50.41     2.4811
  237.0000      48.01     2.4811
  237.1000      51.41     2.5411
  237.2000      49.01     2.5412
  237.3000      50.61     2.5412
  237.4000      48.21     2.5412
  237.5000      49.81     2.5412
  237.6000      51.42     2.5013
  237.7000      49.02     2.5013
  237.8000      50.62     2.5013
  237.9000      48.22     2.5014
  238.0000      49.82     2.5014
  238.1000      49.22     2.5614
  238.2000      50.83     2.5615
  238.3000      48.43     2.5615
  238.4000      50.03     2.5615
  238.5000      51.63     2.5615
  238.6000      49.24     2.5216
  238.7000      50.84     2.5216
  238.8000      48.44     2.5216
  238.9000      50.04     2.5217
  239.0000      51.65     2.5217
  239.1000      51.05     2.4817
  239.2000      48.65     2.4818
  239.3000      50.25     2.4818
  239.4000      51.86     2.4818
  239.5000      49.46     2.4818
  239.6000      51.06     2.5419
  239.7000      48.67     2.5419
  239.8000      50.27     2.5419
  239.9000      51.87     2.5420
  240.0000      49.48     2.5420
  240.1000      48.88     2.5420
  240.2000      50.48     2.5021
  240.3000      48.09     2.5021
  240.4000      49.69     2.5021
  240.5000      51.30     2.5021
  240.6000      48.90     2.5022
  240.7000      50.50     2.5622
  240.8000      48.11     2.5622
  240.9000      49.71     2.5623
  241.0000      51.32     2.5623
  241.1000      50.72     2.5623
  241.2000      48.32     2.5224
  241.3000      49.93     2.5224
  241.4000      51.53     2.5224
  241.5000      49.14     2.5224
  241.6000      50.74     2.5225
  241.7000      48.35     2.4825
  241.8000      49.95     2.4825
  241.9000      51.56     2.4826
  242.0000      49.16     2.4826
  242.1000      48.57     2.4826
  242.2000      50.17     2.5427
  242.3000      51.78     2.5427
  242.4000      49.38     2.5427
  242.5000      50.99     2.5427
  242.6000      48.59     2.5428
  242.7000      50.20     2.5028
  242.8000      51.81     2.5028
  242.9000      49.41     2.5029
