~V
VERS.              2.0:   CWLS Log ASCII Standard - VERSION 2.0
WRAP.               NO:   One Line per Depth Step

~W
STRT.M             0.0000:  Start Depth
STOP.M         510.0000:  Stop Depth
STEP.M             0.1000:  Step
NULL.          -999.2500:  Null Value
COMP.   Fission Uranium Corp:   Company
WELL.   PLS-22-08:   Well Name
FLD .   Patterson Lake South:   Field
LOC .   Athabasca Basin:   Location
PROV.   Saskatchewan:   Province
CTRY.   Canada:   Country
DATE.   2022-02-14:   Date

~C
DEPT.M      : Depth
GR  .GAPI   : Gamma Ray
RHOB.G/CC   : Bulk Density

~A
# ...
   72.9000      89.47     2.5019
   73.0000      88.88     2.5019
   73.1000      90.48     2.4819
   73.2000      88.09     2.4820
   73.3000      89.69     2.4820
   73.4000      91.29     2.4620
   73.5000      88.90     2.4621
   73.6000      90.50     2.4421
   73.7000      88.11     2.4421
   73.8000      89.71     2.4421
   73.9000      91.31     2.4222
   74.0000      90.72     2.4222
   74.1000      88.32     2.5022
   74.2000      89.92     2.5023
   74.3000      91.53     2.5023
   74.4000      89.13     2.4823
   74.5000      90.73     2.4823
   74.6000      88.34     2.4824
   74.7000      89.94     2.4624
   74.8000      91.54     2.4624
   74.9000      89.15     2.4425
   75.0000      88.55     2.4425
   75.1000      90.15     2.4425
   75.2000      91.76     2.4226
   75.3000      89.36     2.4226
   75.4000      90.96     2.5126
   75.5000      88.56     2.5127
   75.6000      90.17     2.5127
   75.7000      91.77     2.4927
   75.8000      89.37     2.4927
   75.9000      90.97     2.4728
   76.0000      88.57     2.4728
   76.1000      87.98     2.4728
   76.2000      89.58     2.4529
   76.3000      91.18     2.4529
   76.4000      88.78     2.4529
   76.5000      90.38     2.4329
   76.6000      87.98     2.4330
   76.7000      89.59     2.5130
   76.8000      91.19     2.5130
   76.9000      88.79     2.5131
   77.0000      90.39     2.4931
   77.1000      89.79     2.4931
   77.2000      91.39     2.4732
   77.3000      88.99     2.4732
   77.4000      90.59     2.4732
   77.5000      88.20     2.4533
   77.6000      89.80     2.4533
   77.7000      91.40     2.4333
   77.8000      89.00     2.4333
   77.9000      90.60     2.4334
   78.0000      88.20     2.5134
   78.1000      91.60     2.5134
   78.2000      89.20     2.4935
   78.3000      90.80     2.4935
   78.4000      88.40     2.4935
   78.5000      90.00     2.4735
   78.6000      91.60     2.4736
   78.7000      89.20     2.4736
   78.8000      90.80     2.4536
   78.9000      88.40     2.4537
   79.0000      90.00     2.4337
   79.1000      89.40     2.4337
   79.2000      91.00     2.4338
   79.3000      88.60     2.5138
   79.4000      90.20     2.5138
   79.5000      91.80     2.4939
   79.6000      89.40     2.4939
   79.7000      90.99     2.4939
   79.8000      88.59     2.4739
   79.9000      90.19     2.4740
   80.0000      91.79     2.4540
   80.1000      91.19     2.4540
   80.2000      88.79     2.4541
   80.3000      90.39     2.4341
   80.4000      87.99     2.4341
   80.5000      89.58     2.5142
   80.6000      91.18     2.5142
   80.7000      88.78     2.5142
   80.8000      90.38     2.4942
   80.9000      87.98     2.4943
   81.0000      89.58     2.4943
   81.1000      88.97     2.4743
   81.2000      90.57     2.4744
   81.3000      88.17     2.4544
   81.4000      89.77     2.4544
   81.5000      91.36     2.4545
   81.6000      88.96     2.4345
   81.7000      90.56     2.4345
   81.8000      88.16     2.5145
   81.9000      89.75     2.5146
   82.0000      91.35     2.5146
   82.1000      90.75     2.4946
   82.2000      88.35     2.4947
   82.3000      89.94     2.4747
   82.4000      91.54     2.4747
   82.5000      89.14     2.4748
   82.6000      90.73     2.4548
   82.7000      88.33     2.4548
   82.8000      89.93     2.4548
   82.9000      91.52     2.4349
   83.0000      89.12     2.4349
   83.1000      88.52     2.5149
   83.2000      90.11     2.5150
   83.3000      91.71     2.5150
   83.4000      89.31     2.4950
   83.5000      90.90     2.4950
   83.6000      88.50     2.4751
   83.7000      90.09     2.4751
   83.8000      91.69     2.4751
   83.9000      89.29     2.4552
   84.0000      90.88     2.4552
   84.1000      90.28     2.4352
   84.2000      87.87     2.4353
   84.3000      89.47     2.4353
   84.4000      91.06     2.5153
   84.5000      88.66     2.5154
   84.6000      90.25     2.4954
   84.7000      87.85     2.4954
   84.8000      89.44     2.4954
   84.9000      91.04     2.4755
   85.0000      88.63     2.4755
   85.1000      88.03     2.4755
   85.2000      89.62     2.4556
   85.3000      91.22     2.4556
   85.4000      88.81     2.4356
   85.5000      90.41     2.4356
   85.6000      88.00     2.4357
   85.7000      89.60     2.5157
   85.8000      91.19     2.5157
   85.9000      88.78     2.4958
   86.0000      90.38     2.4958
   86.1000      89.77     2.4958
   86.2000      91.37     2.4759
   86.3000      88.96     2.4759
   86.4000      90.55     2.4559
   86.5000      88.15     2.4560
   86.6000      89.74     2.4560
   86.7000      91.33     2.4360
   86.8000      88.93     2.4360
   86.9000      90.52     2.5161
   87.0000      88.11     2.5161
   87.1000      91.51     2.5161
   87.2000      89.10     2.4962
   87.3000      90.69     2.4962
   87.4000      88.29     2.4962
   87.5000      89.88     2.4762
   87.6000      91.47     2.4763
   87.7000      89.07     2.4563
   87.8000      90.66     2.4563
   87.9000      88.25     2.4564
   88.0000      89.84     2.4364
   88.1000      89.24     2.4364
   88.2000      90.83     2.5165
   88.3000      88.42     2.5165
   88.4000      90.01     2.5165
   88.5000      87.60     2.4966
   88.6000      89.20     2.4966
   88.7000      90.79     2.4766
   88.8000      88.38     2.4766
   88.9000      89.97     2.4767
   89.0000      87.56     2.4567
   89.1000      90.96     2.4567
   89.2000      88.55     2.4568
   89.3000      90.14     2.4368
   89.4000      87.73     2.4368
   89.5000      89.32     2.5168
   89.6000      90.91     2.5169
   89.7000      88.50     2.5169
   89.8000      90.09     2.4969
   89.9000      87.69     2.4970
   90.0000      89.28     2.4770
   90.1000      88.67     2.4770
   90.2000      90.26     2.4771
   90.3000      87.85     2.4571
   90.4000      89.44     2.4571
   90.5000      91.03     2.4371
   90.6000      88.62     2.4372
   90.7000      90.21     2.4372
   90.8000      87.80     2.5172
   90.9000      89.39     2.5173
   91.0000      90.98     2.4973
   91.1000      90.37     2.4973
   91.2000      87.96     2.4974
   91.3000      89.55     2.4774
   91.4000      91.14     2.4774
   91.5000      88.73     2.4774
   91.6000      90.32     2.4575
   91.7000      87.91     2.4575
   91.8000      89.50     2.4375
   91.9000      91.09     2.4376
   92.0000      88.68     2.4376
   92.1000      88.07     2.5176
   92.2000      89.66     2.5177
   92.3000      87.25     2.4977
   92.4000      88.84     2.4977
   92.5000      90.43     2.4977
   92.6000      88.01     2.4778
   92.7000      89.60     2.4778
   92.8000      87.19     2.4578
   92.9000      88.78     2.4579
   93.0000      90.37     2.4579
   93.1000      89.76     2.4379
   93.2000      87.35     2.4380
   93.3000      88.93     2.5180
   93.4000      90.52     2.5180
   93.5000      88.11     2.5180
   93.6000      89.70     2.4981
   93.7000      87.29     2.4981
   93.8000      88.88     2.4981
   93.9000      90.46     2.4782
   94.0000      88.05     2.4782
   94.1000      87.44     2.4582
   94.2000      89.03     2.4583
   94.3000      90.61     2.4583
   94.4000      88.20     2.4383
   94.5000      89.79     2.4383
   94.6000      87.38     2.5184
   94.7000      88.96     2.5184
   94.8000      90.55     2.5184
   94.9000      88.14     2.4985
   95.0000      89.73     2.4985
   95.1000      89.11     2.4785
   95.2000      90.70     2.4786
   95.3000      88.29     2.4786
   95.4000      89.87     2.4586
   95.5000      87.46     2.4587
   95.6000      89.05     2.4587
   95.7000      90.63     2.4387
   95.8000      88.22     2.4387
   95.9000      89.81     2.5188
   96.0000      87.39     2.5188
   96.1000      86.78     2.5188
   96.2000      88.37     2.4989
   96.3000      89.95     2.4989
   96.4000      87.54     2.4789
   96.5000      89.12     2.4789
   96.6000      86.71     2.4790
   96.7000      88.30     2.4590
   96.8000      89.88     2.4590
   96.9000      87.47     2.4391
   97.0000      89.05     2.4391
   97.1000      88.44     2.4391
