~V
VERS.              2.0:   CWLS Log ASCII Standard - VERSION 2.0
WRAP.               NO:   One Line per Depth Step

~W
STRT.M             0.0000:  Start Depth
STOP.M         510.0000:  Stop Depth
STEP.M             0.1000:  Step
NULL.          -999.2500:  Null Value
COMP.   Fission Uranium Corp:   Company
WELL.   PLS-22-08:   Well Name
FLD .   Patterson Lake South:   Field
LOC .   Athabasca Basin:   Location
PROV.   Saskatchewan:   Province
CTRY.   Canada:   Country
DATE.   2022-02-14:   Date

~C
DEPT.M      : Depth
GR  .GAPI   : Gamma Ray
RHOB.G/CC   : Bulk Density

~A
# ...
  291.6000      59.88     2.5575
  291.7000      60.72     2.5375
  291.8000      61.55     2.5375
  291.9000      62.39     2.5376
  292.0000      63.22     2.5176
  292.1000      61.86     2.5176
  292.2000      62.70     2.4977
  292.3000      59.53     2.4977
  292.4000      60.37     2.4977
  292.5000      61.20     2.5777
  292.6000      62.04     2.5778
  292.7000      62.88     2.5578
  292.8000      59.71     2.5578
  292.9000      60.55     2.5579
  293.0000      61.39     2.5379
  293.1000      60.02     2.5379
  293.2000      60.86     2.5180
  293.3000      61.70     2.5180
  293.4000      62.53     2.5180
  293.5000      63.37     2.4980
  293.6000      60.21     2.4981
  293.7000      61.04     2.5781
  293.8000      61.88     2.5781
  293.9000      62.72     2.5782
  294.0000      63.55     2.5582
  294.1000      62.19     2.5582
  294.2000      63.03     2.5583
  294.3000      63.86     2.5383
  294.4000      60.70     2.5383
  294.5000      61.54     2.5183
  294.6000      62.37     2.5184
  294.7000      63.21     2.5184
  294.8000      64.05     2.4984
  294.9000      60.89     2.4985
  295.0000      61.72     2.5785
  295.1000      64.36     2.5785
  295.2000      61.20     2.5786
  295.3000      62.03     2.5586
  295.4000      62.87     2.5586
  295.5000      63.71     2.5386
  295.6000      64.55     2.5387
  295.7000      61.38     2.5387
  295.8000      62.22     2.5187
  295.9000      63.06     2.5188
  296.0000      63.89     2.5188
  296.1000      62.53     2.4988
  296.2000      63.37     2.4989
  296.3000      64.21     2.5789
  296.4000      61.04     2.5789
  296.5000      61.88     2.5789
  296.6000      62.72     2.5590
  296.7000      63.56     2.5590
  296.8000      64.39     2.5390
  296.9000      61.23     2.5391
  297.0000      62.07     2.5391
  297.1000      64.71     2.5191
  297.2000      61.55     2.5192
  297.3000      62.38     2.4992
  297.4000      63.22     2.4992
  297.5000      64.06     2.4992
  297.6000      64.90     2.5793
  297.7000      61.73     2.5793
  297.8000      62.57     2.5593
  297.9000      63.41     2.5594
  298.0000      64.25     2.5594
  298.1000      62.89     2.5394
  298.2000      63.72     2.5395
  298.3000      64.56     2.5395
  298.4000      65.40     2.5195
  298.5000      62.24     2.5196
  298.6000      63.08     2.4996
  298.7000      63.91     2.4996
  298.8000      64.75     2.4996
  298.9000      65.59     2.5797
  299.0000      62.43     2.5797
  299.1000      65.07     2.5597
  299.2000      65.91     2.5598
  299.3000      62.74     2.5598
  299.4000      63.58     2.5398
  299.5000      64.42     2.5398
  299.6000      65.26     2.5199
  299.7000      66.10     2.5199
  299.8000      62.93     2.5199
  299.9000      63.77     2.5000
  300.0000      64.61     2.5000
  300.1000      63.25     2.5800
  300.2000      64.09     2.5801
  300.3000      64.93     2.5801
  300.4000      65.77     2.5601
  300.5000      62.60     2.5602
  300.6000      63.44     2.5602
  300.7000      64.28     2.5402
  300.8000      65.12     2.5402
  300.9000      65.96     2.5203
  301.0000      62.80     2.5203
  301.1000      65.44     2.5203
  301.2000      66.27     2.4904
  301.3000      63.11     2.4904
  301.4000      63.95     2.5704
  301.5000      64.79     2.5705
  301.6000      65.63     2.5705
  301.7000      66.47     2.5505
  301.8000      63.31     2.5505
  301.9000      64.15     2.5306
  302.0000      66.78     2.5306
  302.1000      63.62     2.5306
  302.2000      64.46     2.5107
  302.3000      65.30     2.5107
  302.4000      66.14     2.5107
  302.5000      66.98     2.4908
  302.6000      63.82     2.4908
  302.7000      64.66     2.5708
  302.8000      65.50     2.5708
  302.9000      66.33     2.5709
  303.0000      64.97     2.5509
  303.1000      65.81     2.5509
  303.2000      66.65     2.5310
  303.3000      67.49     2.5310
  303.4000      64.33     2.5310
  303.5000      65.17     2.5111
  303.6000      66.01     2.5111
  303.7000      66.85     2.4911
  303.8000      67.69     2.4911
  303.9000      64.53     2.4912
  304.0000      67.16     2.5712
  304.1000      64.00     2.5712
  304.2000      64.84     2.5513
  304.3000      65.68     2.5513
  304.4000      66.52     2.5513
  304.5000      67.36     2.5314
  304.6000      64.20     2.5314
  304.7000      65.04     2.5314
  304.8000      65.88     2.5114
  304.9000      66.72     2.5115
  305.0000      65.36     2.4915
  305.1000      66.20     2.4915
  305.2000      67.04     2.4916
  305.3000      67.87     2.5716
  305.4000      64.71     2.5716
  305.5000      65.55     2.5517
  305.6000      66.39     2.5517
  305.7000      67.23     2.5517
  305.8000      68.07     2.5317
  305.9000      64.91     2.5318
  306.0000      67.55     2.5118
  306.1000      68.39     2.5118
  306.2000      65.23     2.5119
  306.3000      66.07     2.4919
  306.4000      66.91     2.4919
  306.5000      67.75     2.5720
  306.6000      68.59     2.5720
  306.7000      65.43     2.5720
  306.8000      66.27     2.5520
  306.9000      67.11     2.5521
  307.0000      65.75     2.5521
  307.1000      66.59     2.5321
  307.2000      67.43     2.5322
  307.3000      68.26     2.5122
  307.4000      69.10     2.5122
  307.5000      65.94     2.5123
  307.6000      66.78     2.4923
  307.7000      67.62     2.4923
  307.8000      68.46     2.5723
  307.9000      69.30     2.5724
  308.0000      67.94     2.5724
  308.1000      68.78     2.5524
  308.2000      65.62     2.5525
  308.3000      66.46     2.5325
  308.4000      67.30     2.5325
  308.5000      68.14     2.5326
  308.6000      68.98     2.5126
  308.7000      65.82     2.5126
  308.8000      66.66     2.5126
  308.9000      67.50     2.4927
  309.0000      66.14     2.4927
  309.1000      66.98     2.5727
  309.2000      67.82     2.5728
  309.3000      68.66     2.5728
  309.4000      69.50     2.5528
  309.5000      66.34     2.5529
  309.6000      67.18     2.5329
  309.7000      68.02     2.5329
  309.8000      68.86     2.5329
  309.9000      69.70     2.5130
  310.0000      68.34     2.5130
  310.1000      69.18     2.4930
  310.2000      70.02     2.4931
  310.3000      66.86     2.4931
  310.4000      67.70     2.5731
  310.5000      68.54     2.5732
  310.6000      69.38     2.5532
  310.7000      70.22     2.5532
  310.8000      67.06     2.5532
  310.9000      67.90     2.5333
  311.0000      70.54     2.5333
  311.1000      67.38     2.5333
  311.2000      68.22     2.5134
  311.3000      69.06     2.5134
  311.4000      69.90     2.4934
  311.5000      70.74     2.4935
  311.6000      67.58     2.4935
  311.7000      68.42     2.5735
  311.8000      69.26     2.5735
  311.9000      70.10     2.5536
  312.0000      68.74     2.5536
  312.1000      69.58     2.5536
  312.2000      70.42     2.5337
  312.3000      67.26     2.5337
  312.4000      68.10     2.5137
  312.5000      68.94     2.5138
  312.6000      69.78     2.5138
  312.7000      70.62     2.4938
  312.8000      67.46     2.4938
  312.9000      68.30     2.5739
  313.0000      70.94     2.5739
  313.1000      67.78     2.5739
  313.2000      68.62     2.5540
  313.3000      69.46     2.5540
  313.4000      70.30     2.5540
  313.5000      71.14     2.5341
  313.6000      67.98     2.5341
  313.7000      68.82     2.5141
  313.8000      69.66     2.5141
  313.9000      70.50     2.5142
  314.0000      69.14     2.4942
  314.1000      69.98     2.4942
  314.2000      70.82     2.5743
  314.3000      71.66     2.5743
  314.4000      68.50     2.5743
  314.5000      69.34     2.5544
  314.6000      70.18     2.5544
  314.7000      71.02     2.5344
  314.8000      71.86     2.5344
  314.9000      68.70     2.5345
  315.0000      71.34     2.5145
  315.1000      72.18     2.5145
  315.2000      69.02     2.5146
  315.3000      69.86     2.4946
  315.4000      70.70     2.4946
  315.5000      71.54     2.5747
  315.6000      72.38     2.5747
  315.7000      69.22     2.5747
  315.8000      70.06     2.5547
