~V
VERS.              2.0:   CWLS Log ASCII Standard - VERSION 2.0
WRAP.               NO:   One Line per Depth Step

~W
STRT.M             0.0000:  Start Depth
STOP.M         510.0000:  Stop Depth
STEP.M             0.1000:  Step
NULL.          -999.2500:  Null Value
COMP.   Fission Uranium Corp:   Company
WELL.   PLS-22-08:   Well Name
FLD .   Patterson Lake South:   Field
LOC .   Athabasca Basin:   Location
PROV.   Saskatchewan:   Province
CTRY.   Canada:   Country
DATE.   2022-02-14:   Date

~C
DEPT.M      : Depth
GR  .GAPI   : Gamma Ray
RHOB.G/CC   : Bulk Density

~A
# ...
   97.2000      90.02     2.5192
   97.3000      87.61     2.5192
   97.4000      89.19     2.4992
   97.5000      86.78     2.4992
   97.6000      88.36     2.4993
   97.7000      89.95     2.4793
   97.8000      87.53     2.4793
   97.9000      89.12     2.4794
   98.0000      86.70     2.4594
   98.1000      90.09     2.4594
   98.2000      87.67     2.4395
   98.3000      89.26     2.4395
   98.4000      86.84     2.4395
   98.5000      88.43     2.5195
   98.6000      90.01     2.5196
   98.7000      87.60     2.4996
   98.8000      89.18     2.4996
   98.9000      86.76     2.4997
   99.0000      88.35     2.4797
   99.1000      87.73     2.4797
   99.2000      89.32     2.4598
   99.3000      86.90     2.4598
   99.4000      88.48     2.4598
   99.5000      90.07     2.4398
   99.6000      87.65     2.4399
   99.7000      89.24     2.5199
   99.8000      86.82     2.5199
   99.9000      88.40     2.5200
  100.0000      89.99     2.5000
  100.1000      89.37     2.5000
  100.2000      86.95     2.5001
  100.3000      88.54     2.4801
  100.4000      86.12     2.4801
  100.5000      87.70     2.4601
  100.6000      89.28     2.4602
  100.7000      86.87     2.4602
  100.8000      88.45     2.4402
  100.9000      86.03     2.4403
  101.0000      87.62     2.5203
  101.1000      87.00     2.5203
  101.2000      88.58     2.5204
  101.3000      86.16     2.5004
  101.4000      87.75     2.5004
  101.5000      89.33     2.4804
  101.6000      86.91     2.4805
  101.7000      88.49     2.4805
  101.8000      86.07     2.4605
  101.9000      87.66     2.4606
  102.0000      89.24     2.4606
  102.1000      88.62     2.4406
  102.2000      86.20     2.4407
  102.3000      87.78     2.5207
  102.4000      89.37     2.5207
  102.5000      86.95     2.5207
  102.6000      88.53     2.5008
  102.7000      86.11     2.5008
  102.8000      87.69     2.4808
  102.9000      89.27     2.4809
  103.0000      86.85     2.4809
  103.1000      86.24     2.4609
  103.2000      87.82     2.4610
  103.3000      89.40     2.4410
  103.4000      86.98     2.4410
  103.5000      88.56     2.4410
  103.6000      86.14     2.5211
  103.7000      87.72     2.5211
  103.8000      89.30     2.5011
  103.9000      86.88     2.5012
  104.0000      88.46     2.5012
  104.1000      87.84     2.4812
  104.2000      85.42     2.4813
  104.3000      87.00     2.4813
  104.4000      88.58     2.4613
  104.5000      86.16     2.4613
  104.6000      87.74     2.4414
  104.7000      85.32     2.4414
  104.8000      86.90     2.4414
  104.9000      88.48     2.5215
  105.0000      86.06     2.5215
  105.1000      85.44     2.5015
  105.2000      87.02     2.5016
  105.3000      88.60     2.5016
  105.4000      86.18     2.4816
  105.5000      87.76     2.4816
  105.6000      85.34     2.4617
  105.7000      86.92     2.4617
  105.8000      88.50     2.4617
  105.9000      86.08     2.4418
  106.0000      87.66     2.4418
  106.1000      87.04     2.5218
  106.2000      88.62     2.5219
  106.3000      86.20     2.5219
  106.4000      87.77     2.5019
  106.5000      85.35     2.5019
  106.6000      86.93     2.5020
  106.7000      88.51     2.4820
  106.8000      86.09     2.4820
  106.9000      87.67     2.4621
  107.0000      85.25     2.4621
  107.1000      88.63     2.4621
  107.2000      86.20     2.4422
  107.3000      87.78     2.4422
  107.4000      85.36     2.5222
  107.5000      86.94     2.5222
  107.6000      88.52     2.5223
  107.7000      86.09     2.5023
  107.8000      87.67     2.5023
  107.9000      85.25     2.4824
  108.0000      86.83     2.4824
  108.1000      86.21     2.4824
  108.2000      87.78     2.4625
  108.3000      85.36     2.4625
  108.4000      86.94     2.4625
  108.5000      84.52     2.4425
  108.6000      86.09     2.4426
  108.7000      87.67     2.5226
  108.8000      85.25     2.5226
  108.9000      86.82     2.5227
  109.0000      84.40     2.5027
  109.1000      87.78     2.5027
  109.2000      85.36     2.4828
  109.3000      86.93     2.4828
  109.4000      84.51     2.4828
  109.5000      86.09     2.4628
  109.6000      87.66     2.4629
  109.7000      85.24     2.4429
  109.8000      86.82     2.4429
  109.9000      84.39     2.4430
  110.0000      85.97     2.5230
  110.1000      85.35     2.5230
  110.2000      86.92     2.5031
  110.3000      84.50     2.5031
  110.4000      86.08     2.5031
  110.5000      87.65     2.4831
  110.6000      85.23     2.4832
  110.7000      86.80     2.4832
  110.8000      84.38     2.4632
  110.9000      85.96     2.4633
  111.0000      87.53     2.4433
  111.1000      86.91     2.4433
  111.2000      84.48     2.4434
  111.3000      86.06     2.5234
  111.4000      87.63     2.5234
  111.5000      85.21     2.5034
  111.6000      86.79     2.5035
  111.7000      84.36     2.5035
  111.8000      85.94     2.4835
  111.9000      87.51     2.4836
  112.0000      85.09     2.4636
  112.1000      84.46     2.4636
  112.2000      86.04     2.4637
  112.3000      83.61     2.4437
  112.4000      85.19     2.4437
  112.5000      86.76     2.5237
  112.6000      84.34     2.5238
  112.7000      85.91     2.5238
  112.8000      83.49     2.5038
  112.9000      85.06     2.5039
  113.0000      86.64     2.5039
  113.1000      86.01     2.4839
  113.2000      83.58     2.4840
  113.3000      85.16     2.4640
  113.4000      86.73     2.4640
  113.5000      84.31     2.4640
  113.6000      85.88     2.4441
  113.7000      83.46     2.4441
  113.8000      85.03     2.5241
  113.9000      86.60     2.5242
  114.0000      84.18     2.5242
  114.1000      83.55     2.5042
  114.2000      85.13     2.5043
  114.3000      86.70     2.4843
  114.4000      84.27     2.4843
  114.5000      85.85     2.4843
  114.6000      83.42     2.4644
  114.7000      84.99     2.4644
  114.8000      86.57     2.4644
  114.9000      84.14     2.4445
  115.0000      85.71     2.4445
  115.1000      85.09     2.5245
  115.2000      86.66     2.5246
  115.3000      84.23     2.5246
  115.4000      85.81     2.5046
  115.5000      83.38     2.5046
  115.6000      84.95     2.4847
  115.7000      86.53     2.4847
  115.8000      84.10     2.4847
  115.9000      85.67     2.4648
  116.0000      83.24     2.4648
  116.1000      82.62     2.4448
  116.2000      84.19     2.4449
  116.3000      85.76     2.4449
  116.4000      83.34     2.5249
  116.5000      84.91     2.5249
  116.6000      82.48     2.5050
  116.7000      84.05     2.5050
  116.8000      85.62     2.5050
  116.9000      83.20     2.4851
  117.0000      84.77     2.4851
  117.1000      84.14     2.4851
  117.2000      85.71     2.4652
  117.3000      83.29     2.4652
  117.4000      84.86     2.4452
  117.5000      82.43     2.4452
  117.6000      84.00     2.4453
  117.7000      85.57     2.5253
  117.8000      83.14     2.5253
  117.9000      84.72     2.5054
  118.0000      82.29     2.5054
  118.1000      85.66     2.5054
  118.2000      83.23     2.4855
  118.3000      84.80     2.4855
  118.4000      82.37     2.4655
  118.5000      83.95     2.4655
  118.6000      85.52     2.4656
  118.7000      83.09     2.4456
  118.8000      84.66     2.4456
  118.9000      82.23     2.5257
  119.0000      83.80     2.5257
  119.1000      83.17     2.5257
  119.2000      84.74     2.5058
  119.3000      82.31     2.5058
  119.4000      83.89     2.5058
  119.5000      85.46     2.4858
  119.6000      83.03     2.4859
  119.7000      84.60     2.4659
  119.8000      82.17     2.4659
  119.9000      83.74     2.4660
  120.0000      85.31     2.4460
  120.1000      84.68     2.4460
  120.2000      82.25     2.5261
  120.3000      83.82     2.5261
  120.4000      81.39     2.5261
  120.5000      82.96     2.5061
  120.6000      84.53     2.5062
  120.7000      82.10     2.4862
  120.8000      83.67     2.4862
  120.9000      81.24     2.4863
  121.0000      82.81     2.4663
  121.1000      82.18     2.4663
  121.2000      83.75     2.4664
  121.3000      81.32     2.4464
  121.4000      82.89     2.4464
