~V
VERS.              2.0:   CWLS Log ASCII Standard - VERSION 2.0
WRAP.               NO:   One Line per Depth Step

~W
STRT.M             0.0000:  Start Depth
STOP.M         510.0000:  Stop Depth
STEP.M             0.1000:  Step
NULL.          -999.2500:  Null Value
COMP.   Fission Uranium Corp:   Company
WELL.   PLS-22-08:   Well Name
FLD .   Patterson Lake South:   Field
LOC .   Athabasca Basin:   Location
PROV.   Saskatchewan:   Province
CTRY.   Canada:   Country
DATE.   2022-02-14:   Date

~C
DEPT.M      : Depth
GR  .GAPI   : Gamma Ray
RHOB.G/CC   : Bulk Density

~A
# ...
  267.3000      54.88     2.5502
  267.4000      55.71     2.5302
  267.5000      52.53     2.5302
  267.6000      53.35     2.5103
  267.7000      54.18     2.5103
  267.8000      55.00     2.5103
  267.9000      55.83     2.4904
  268.0000      52.65     2.4904
  268.1000      55.27     2.5704
  268.2000      52.10     2.5705
  268.3000      52.92     2.5705
  268.4000      53.75     2.5505
  268.5000      54.57     2.5505
  268.6000      55.40     2.5506
  268.7000      52.22     2.5306
  268.8000      53.04     2.5306
  268.9000      53.87     2.5107
  269.0000      54.69     2.5107
  269.1000      53.32     2.5107
  269.2000      54.14     2.4908
  269.3000      54.97     2.4908
  269.4000      55.79     2.5708
  269.5000      52.62     2.5708
  269.6000      53.44     2.5709
  269.7000      54.27     2.5509
  269.8000      55.09     2.5509
  269.9000      55.92     2.5310
  270.0000      52.74     2.5310
  270.1000      55.37     2.5310
  270.2000      56.20     2.5111
  270.3000      53.02     2.5111
  270.4000      53.85     2.5111
  270.5000      54.67     2.4911
  270.6000      55.50     2.4912
  270.7000      56.32     2.5712
  270.8000      53.15     2.5712
  270.9000      53.98     2.5713
  271.0000      54.80     2.5513
  271.1000      53.43     2.5513
  271.2000      54.25     2.5314
  271.3000      55.08     2.5314
  271.4000      55.91     2.5314
  271.5000      56.73     2.5114
  271.6000      53.56     2.5115
  271.7000      54.39     2.4915
  271.8000      55.21     2.4915
  271.9000      56.04     2.4916
  272.0000      56.86     2.5716
  272.1000      55.49     2.5716
  272.2000      56.32     2.5517
  272.3000      53.14     2.5517
  272.4000      53.97     2.5517
  272.5000      54.80     2.5317
  272.6000      55.63     2.5318
  272.7000      56.45     2.5318
  272.8000      53.28     2.5118
  272.9000      54.11     2.5119
  273.0000      54.93     2.4919
  273.1000      53.56     2.4919
  273.2000      54.39     2.4920
  273.3000      55.22     2.5720
  273.4000      56.04     2.5720
  273.5000      56.87     2.5520
  273.6000      53.70     2.5521
  273.7000      54.53     2.5521
  273.8000      55.35     2.5321
  273.9000      56.18     2.5322
  274.0000      57.01     2.5122
  274.1000      55.64     2.5122
  274.2000      56.46     2.5123
  274.3000      57.29     2.4923
  274.4000      54.12     2.4923
  274.5000      54.95     2.5723
  274.6000      55.78     2.5724
  274.7000      56.60     2.5724
  274.8000      57.43     2.5524
  274.9000      54.26     2.5525
  275.0000      55.09     2.5525
  275.1000      57.72     2.5325
  275.2000      54.55     2.5326
  275.3000      55.37     2.5126
  275.4000      56.20     2.5126
  275.5000      57.03     2.5126
  275.6000      57.86     2.4927
  275.7000      54.69     2.4927
  275.8000      55.52     2.5727
  275.9000      56.35     2.5728
  276.0000      57.18     2.5728
  276.1000      55.80     2.5528
  276.2000      56.63     2.5529
  276.3000      57.46     2.5329
  276.4000      54.29     2.5329
  276.5000      55.12     2.5329
  276.6000      55.95     2.5130
  276.7000      56.78     2.5130
  276.8000      57.61     2.5130
  276.9000      54.44     2.4931
  277.0000      55.27     2.4931
  277.1000      57.90     2.5731
  277.2000      54.73     2.5732
  277.3000      55.56     2.5732
  277.4000      56.39     2.5532
  277.5000      57.22     2.5532
  277.6000      58.04     2.5333
  277.7000      54.87     2.5333
  277.8000      55.70     2.5333
  277.9000      56.53     2.5134
  278.0000      57.36     2.5134
  278.1000      55.99     2.4934
  278.2000      56.82     2.4935
  278.3000      57.65     2.4935
  278.4000      58.48     2.5735
  278.5000      55.32     2.5735
  278.6000      56.15     2.5536
  278.7000      56.98     2.5536
  278.8000      57.81     2.5536
  278.9000      58.64     2.5337
  279.0000      55.47     2.5337
  279.1000      58.10     2.5337
  279.2000      58.93     2.5138
  279.3000      55.76     2.5138
  279.4000      56.59     2.4938
  279.5000      57.42     2.4938
  279.6000      58.25     2.4939
  279.7000      59.08     2.5739
  279.8000      55.91     2.5739
  279.9000      56.74     2.5540
  280.0000      57.57     2.5540
  280.1000      56.21     2.5540
  280.2000      57.04     2.5341
  280.3000      57.87     2.5341
  280.4000      58.70     2.5141
  280.5000      55.53     2.5141
  280.6000      56.36     2.5142
  280.7000      57.19     2.4942
  280.8000      58.02     2.4942
  280.9000      58.86     2.5743
  281.0000      55.69     2.5743
  281.1000      58.32     2.5743
  281.2000      59.15     2.5544
  281.3000      55.98     2.5544
  281.4000      56.81     2.5544
  281.5000      57.65     2.5344
  281.6000      58.48     2.5345
  281.7000      59.31     2.5145
  281.8000      56.14     2.5145
  281.9000      56.97     2.5146
  282.0000      57.81     2.4946
  282.1000      56.44     2.4946
  282.2000      57.27     2.5747
  282.3000      58.10     2.5747
  282.4000      58.93     2.5747
  282.5000      59.77     2.5547
  282.6000      56.60     2.5548
  282.7000      57.43     2.5348
  282.8000      58.26     2.5348
  282.9000      59.10     2.5349
  283.0000      59.93     2.5149
  283.1000      58.56     2.5149
  283.2000      59.39     2.5150
  283.3000      60.23     2.4950
  283.4000      57.06     2.4950
  283.5000      57.89     2.5750
  283.6000      58.72     2.5751
  283.7000      59.56     2.5751
  283.8000      60.39     2.5551
  283.9000      57.22     2.5552
  284.0000      58.05     2.5352
  284.1000      56.69     2.5352
  284.2000      57.52     2.5353
  284.3000      58.35     2.5153
  284.4000      59.19     2.5153
  284.5000      60.02     2.4953
  284.6000      56.85     2.4954
  284.7000      57.69     2.4954
  284.8000      58.52     2.5754
  284.9000      59.35     2.5755
  285.0000      60.19     2.5555
  285.1000      58.82     2.5555
  285.2000      59.65     2.5556
  285.3000      60.49     2.5356
  285.4000      57.32     2.5356
  285.5000      58.15     2.5356
  285.6000      58.99     2.5157
  285.7000      59.82     2.5157
  285.8000      60.65     2.4957
  285.9000      57.49     2.4958
  286.0000      58.32     2.4958
  286.1000      60.96     2.5758
  286.2000      57.79     2.5759
  286.3000      58.62     2.5559
  286.4000      59.46     2.5559
  286.5000      60.29     2.5559
  286.6000      61.13     2.5360
  286.7000      57.96     2.5360
  286.8000      58.79     2.5160
  286.9000      59.63     2.5161
  287.0000      60.46     2.5161
  287.1000      59.10     2.4961
  287.2000      59.93     2.4962
  287.3000      60.77     2.5762
  287.4000      61.60     2.5762
  287.5000      58.43     2.5762
  287.6000      59.27     2.5563
  287.7000      60.10     2.5563
  287.8000      60.94     2.5563
  287.9000      61.77     2.5364
  288.0000      58.61     2.5364
  288.1000      61.24     2.5164
  288.2000      58.08     2.5165
  288.3000      58.91     2.5165
  288.4000      59.75     2.4965
  288.5000      60.58     2.4965
  288.6000      61.42     2.5766
  288.7000      58.25     2.5766
  288.8000      59.09     2.5766
  288.9000      59.92     2.5567
  289.0000      60.76     2.5567
  289.1000      59.39     2.5367
  289.2000      60.23     2.5368
  289.3000      61.06     2.5368
  289.4000      61.90     2.5168
  289.5000      58.73     2.5168
  289.6000      59.57     2.5169
  289.7000      60.40     2.4969
  289.8000      61.24     2.4969
  289.9000      62.07     2.5770
  290.0000      58.91     2.5770
  290.1000      61.54     2.5770
  290.2000      62.38     2.5571
  290.3000      59.21     2.5571
  290.4000      60.05     2.5371
  290.5000      60.89     2.5371
  290.6000      61.72     2.5372
  290.7000      62.56     2.5172
  290.8000      59.39     2.5172
  290.9000      60.23     2.4973
  291.0000      61.06     2.4973
  291.1000      59.70     2.4973
  291.2000      60.54     2.5774
  291.3000      61.37     2.5774
  291.4000      62.21     2.5574
  291.5000      63.04     2.5574
