~V
VERS.              2.0:   CWLS Log ASCII Standard - VERSION 2.0
WRAP.               NO:   One Line per Depth Step

~W
STRT.M             0.0000:  Start Depth
STOP.M         510.0000:  Stop Depth
STEP.M             0.1000:  Step
NULL.          -999.2500:  Null Value
COMP.   Fission Uranium Corp:   Company
WELL.   PLS-22-08:   Well Name
FLD .   Patterson Lake South:   Field
LOC .   Athabasca Basin:   Location
PROV.   Saskatchewan:   Province
CTRY.   Canada:   Country
DATE.   2022-02-14:   Date

~C
DEPT.M      : Depth
GR  .GAPI   : Gamma Ray
RHOB.G/CC   : Bulk Density

~A
# ...
  315.9000      70.90     2.5548
  316.0000      69.54     2.5348
  316.1000      70.38     2.5348
  316.2000      71.22     2.5349
  316.3000      72.06     2.5149
  316.4000      68.90     2.5149
  316.5000      69.74     2.4950
  316.6000      70.58     2.4950
  316.7000      71.42     2.4950
  316.8000      72.26     2.5750
  316.9000      69.10     2.5751
  317.0000      71.74     2.5551
  317.1000      72.58     2.5551
  317.2000      69.42     2.5552
  317.3000      70.26     2.5352
  317.4000      71.10     2.5352
  317.5000      71.94     2.5353
  317.6000      72.78     2.5153
  317.7000      69.62     2.5153
  317.8000      70.46     2.4953
  317.9000      71.29     2.4954
  318.0000      69.93     2.4954
  318.1000      70.77     2.5754
  318.2000      71.61     2.5755
  318.3000      72.45     2.5555
  318.4000      73.29     2.5555
  318.5000      70.13     2.5556
  318.6000      70.97     2.5356
  318.7000      71.81     2.5356
  318.8000      72.65     2.5156
  318.9000      73.49     2.5157
  319.0000      72.13     2.5157
  319.1000      72.97     2.4957
  319.2000      73.81     2.4958
  319.3000      70.65     2.5758
  319.4000      71.49     2.5758
  319.5000      72.33     2.5759
  319.6000      73.17     2.5559
  319.7000      74.01     2.5559
  319.8000      70.85     2.5559
  319.9000      71.69     2.5360
  320.0000      70.33     2.5360
  320.1000      71.17     2.5160
  320.2000      72.01     2.5161
  320.3000      72.85     2.5161
  320.4000      73.69     2.4961
  320.5000      70.53     2.4962
  320.6000      71.37     2.5762
  320.7000      72.21     2.5762
  320.8000      73.05     2.5762
  320.9000      73.89     2.5563
  321.0000      72.53     2.5563
  321.1000      73.37     2.5363
  321.2000      74.21     2.5364
  321.3000      71.05     2.5364
  321.4000      71.89     2.5164
  321.5000      72.73     2.5165
  321.6000      73.57     2.5165
  321.7000      74.40     2.4965
  321.8000      71.24     2.4965
  321.9000      72.08     2.5766
  322.0000      74.72     2.5766
  322.1000      71.56     2.5766
  322.2000      72.40     2.5567
  322.3000      73.24     2.5567
  322.4000      74.08     2.5367
  322.5000      74.92     2.5368
  322.6000      71.76     2.5368
  322.7000      72.60     2.5168
  322.8000      73.44     2.5168
  322.9000      74.28     2.4969
  323.0000      72.92     2.4969
  323.1000      73.76     2.4969
  323.2000      74.60     2.5770
  323.3000      75.44     2.5770
  323.4000      72.28     2.5570
  323.5000      73.11     2.5571
  323.6000      73.95     2.5571
  323.7000      74.79     2.5371
  323.8000      75.63     2.5371
  323.9000      72.47     2.5372
  324.0000      75.11     2.5172
  324.1000      71.95     2.5172
  324.2000      72.79     2.4973
  324.3000      73.63     2.4973
  324.4000      74.47     2.4973
  324.5000      75.31     2.5774
  324.6000      72.15     2.5774
  324.7000      72.99     2.5574
  324.8000      73.82     2.5574
  324.9000      74.66     2.5575
  325.0000      73.30     2.5375
  325.1000      74.14     2.5375
  325.2000      74.98     2.5176
  325.3000      75.82     2.5176
  325.4000      72.66     2.5176
  325.5000      73.50     2.4977
  325.6000      74.34     2.4977
  325.7000      75.18     2.5777
  325.8000      76.01     2.5777
  325.9000      72.85     2.5778
  326.0000      75.49     2.5578
  326.1000      76.33     2.5578
  326.2000      73.17     2.5579
  326.3000      74.01     2.5379
  326.4000      74.85     2.5379
  326.5000      75.69     2.5180
  326.6000      76.53     2.5180
  326.7000      73.36     2.5180
  326.8000      74.20     2.4980
  326.9000      75.04     2.4981
  327.0000      73.68     2.5781
  327.1000      74.52     2.5781
  327.2000      75.36     2.5782
  327.3000      76.20     2.5582
  327.4000      77.03     2.5582
  327.5000      73.87     2.5383
  327.6000      74.71     2.5383
  327.7000      75.55     2.5383
  327.8000      76.39     2.5183
  327.9000      77.23     2.5184
  328.0000      75.87     2.5184
  328.1000      76.70     2.4984
  328.2000      73.54     2.4985
  328.3000      74.38     2.5785
  328.4000      75.22     2.5785
  328.5000      76.06     2.5786
  328.6000      76.90     2.5586
  328.7000      73.73     2.5586
  328.8000      74.57     2.5386
  328.9000      75.41     2.5387
  329.0000      74.05     2.5387
  329.1000      74.89     2.5187
  329.2000      75.73     2.5188
  329.3000      76.56     2.4988
  329.4000      77.40     2.4988
  329.5000      74.24     2.4989
  329.6000      75.08     2.5789
  329.7000      75.92     2.5789
  329.8000      76.75     2.5589
  329.9000      77.59     2.5590
  330.0000      76.23     2.5590
  330.1000      77.07     2.5390
  330.2000      77.91     2.5391
  330.3000      74.74     2.5391
  330.4000      75.58     2.5191
  330.5000      76.42     2.5192
  330.6000      77.26     2.4992
  330.7000      78.10     2.4992
  330.8000      74.93     2.4992
  330.9000      75.77     2.5793
  331.0000      78.41     2.5793
  331.1000      75.25     2.5593
  331.2000      76.09     2.5594
  331.3000      76.92     2.5594
  331.4000      77.76     2.5394
  331.5000      78.60     2.5395
  331.6000      75.44     2.5195
  331.7000      76.27     2.5195
  331.8000      77.11     2.5195
  331.9000      77.95     2.4996
  332.0000      76.59     2.4996
  332.1000      77.42     2.5796
  332.2000      78.26     2.5797
  332.3000      75.10     2.5797
  332.4000      75.94     2.5597
  332.5000      76.77     2.5598
  332.6000      77.61     2.5598
  332.7000      78.45     2.5398
  332.8000      75.28     2.5398
  332.9000      76.12     2.5199
  333.0000      78.76     2.5199
  333.1000      75.60     2.5199
  333.2000      76.43     2.5000
  333.3000      77.27     2.5000
  333.4000      78.11     2.5800
  333.5000      78.94     2.5801
  333.6000      75.78     2.5801
  333.7000      76.62     2.5601
  333.8000      77.46     2.5601
  333.9000      78.29     2.5402
  334.0000      76.93     2.5402
  334.1000      77.77     2.5402
  334.2000      78.60     2.5203
  334.3000      79.44     2.5203
  334.4000      76.28     2.5203
  334.5000      77.11     2.5004
  334.6000      77.95     2.5004
  334.7000      78.79     2.5804
  334.8000      79.62     2.5804
  334.9000      76.46     2.5805
  335.0000      79.10     2.5605
  335.1000      79.93     2.5605
  335.2000      76.77     2.5406
  335.3000      77.61     2.5406
  335.4000      78.44     2.5406
  335.5000      79.28     2.5207
  335.6000      80.12     2.5207
  335.7000      76.95     2.5007
  335.8000      77.79     2.5007
  335.9000      78.62     2.5008
  336.0000      77.26     2.5808
  336.1000      78.10     2.5808
  336.2000      78.93     2.5609
  336.3000      79.77     2.5609
  336.4000      76.61     2.5609
  336.5000      77.44     2.5410
  336.6000      78.28     2.5410
  336.7000      79.11     2.5410
  336.8000      79.95     2.5210
  336.9000      76.79     2.5211
  337.0000      79.42     2.5011
  337.1000      80.26     2.5011
  337.2000      77.09     2.5012
  337.3000      77.93     2.5812
  337.4000      78.77     2.5812
  337.5000      79.60     2.5613
  337.6000      80.44     2.5613
  337.7000      77.27     2.5613
  337.8000      78.11     2.5413
  337.9000      78.94     2.5414
  338.0000      77.58     2.5214
  338.1000      78.41     2.5214
  338.2000      79.25     2.5215
  338.3000      80.09     2.5015
  338.4000      80.92     2.5015
  338.5000      77.76     2.5816
  338.6000      78.59     2.5816
  338.7000      79.43     2.5816
  338.8000      80.26     2.5616
  338.9000      81.10     2.5617
  339.0000      79.73     2.5617
  339.1000      80.57     2.5417
  339.2000      81.40     2.5418
  339.3000      78.24     2.5218
  339.4000      79.07     2.5218
  339.5000      79.91     2.5219
  339.6000      80.74     2.5019
  339.7000      81.58     2.5019
  339.8000      78.41     2.5819
  339.9000      79.25     2.5820
  340.0000      77.88     2.5820
  340.1000      78.72     2.5620
