~V
VERS.              2.0:   CWLS Log ASCII Standard - VERSION 2.0
WRAP.               NO:   One Line per Depth Step

~W
STRT.M             0.0000:  Start Depth
STOP.M         510.0000:  Stop Depth
STEP.M             0.1000:  Step
NULL.          -999.2500:  Null Value
COMP.   Fission Uranium Corp:   Company
WELL.   PLS-22-08:   Well Name
FLD .   Patterson Lake South:   Field
LOC .   Athabasca Basin:   Location
PROV.   Saskatchewan:   Province
CTRY.   Canada:   Country
DATE.   2022-02-14:   Date

~C
DEPT.M      : Depth
GR  .GAPI   : Gamma Ray
RHOB.G/CC   : Bulk Density

~A
# ...
   24.3000      77.34     2.4873
   24.4000      79.78     2.4873
   24.5000      78.21     2.4874
   24.6000      80.65     2.4674
   24.7000      79.08     2.4674
   24.8000      77.52     2.4474
   24.9000      79.95     2.4475
   25.0000      80.19     2.4475
   25.1000      78.62     2.4275
   25.2000      81.06     2.4276
   25.3000      79.49     2.4076
   25.4000      77.93     2.4076
   25.5000      80.36     2.4077
   25.6000      78.80     2.4877
   25.7000      81.23     2.4877
   25.8000      79.67     2.4677
   25.9000      78.10     2.4678
   26.0000      78.34     2.4678
   26.1000      80.77     2.4478
   26.2000      79.21     2.4479
   26.3000      81.64     2.4279
   26.4000      80.08     2.4279
   26.5000      78.51     2.4280
   26.6000      80.95     2.4080
   26.7000      79.38     2.4080
   26.8000      81.81     2.4080
   26.9000      80.25     2.4881
   27.0000      80.48     2.4881
   27.1000      78.92     2.4681
   27.2000      81.35     2.4682
   27.3000      79.79     2.4682
   27.4000      82.22     2.4482
   27.5000      80.65     2.4483
   27.6000      79.09     2.4283
   27.7000      81.52     2.4283
   27.8000      79.96     2.4283
   27.9000      82.39     2.4084
   28.0000      78.62     2.4084
   28.1000      81.06     2.4884
   28.2000      79.49     2.4885
   28.3000      81.93     2.4885
   28.4000      80.36     2.4685
   28.5000      78.79     2.4686
   28.6000      81.23     2.4486
   28.7000      79.66     2.4486
   28.8000      82.09     2.4486
   28.9000      80.53     2.4287
   29.0000      80.76     2.4287
   29.1000      79.19     2.4287
   29.2000      81.63     2.4088
   29.3000      80.06     2.4088
   29.4000      82.49     2.4888
   29.5000      80.93     2.4889
   29.6000      79.36     2.4889
   29.7000      81.79     2.4689
   29.8000      80.23     2.4689
   29.9000      82.66     2.4490
   30.0000      82.89     2.4490
   30.1000      81.33     2.4490
   30.2000      79.76     2.4291
   30.3000      82.19     2.4291
   30.4000      80.62     2.4091
   30.5000      83.06     2.4092
   30.6000      81.49     2.4092
   30.7000      79.92     2.4892
   30.8000      82.36     2.4892
   30.9000      80.79     2.4893
   31.0000      81.02     2.4693
   31.1000      83.45     2.4693
   31.2000      81.89     2.4494
   31.3000      80.32     2.4494
   31.4000      82.75     2.4494
   31.5000      81.18     2.4295
   31.6000      83.62     2.4295
   31.7000      82.05     2.4095
   31.8000      80.48     2.4095
   31.9000      82.91     2.4096
   32.0000      83.14     2.4896
   32.1000      81.58     2.4896
   32.2000      80.01     2.4697
   32.3000      82.44     2.4697
   32.4000      80.87     2.4697
   32.5000      83.30     2.4498
   32.6000      81.74     2.4498
   32.7000      80.17     2.4298
   32.8000      82.60     2.4298
   32.9000      81.03     2.4299
   33.0000      81.26     2.4299
   33.1000      83.69     2.4899
   33.2000      82.13     2.4900
   33.3000      80.56     2.4900
   33.4000      82.99     2.4900
   33.5000      81.42     2.4901
   33.6000      83.85     2.4501
   33.7000      82.28     2.4501
   33.8000      80.71     2.4501
   33.9000      83.14     2.4502
   34.0000      83.38     2.4502
   34.1000      81.81     2.4502
   34.2000      84.24     2.4103
   34.3000      82.67     2.4103
   34.4000      81.10     2.4103
   34.5000      83.53     2.4104
   34.6000      81.96     2.4104
   34.7000      84.39     2.4704
   34.8000      82.82     2.4704
   34.9000      81.25     2.4705
   35.0000      81.48     2.4705
   35.1000      83.91     2.4705
   35.2000      82.35     2.4306
   35.3000      84.78     2.4306
   35.4000      83.21     2.4306
   35.5000      81.64     2.4307
   35.6000      84.07     2.4307
   35.7000      82.50     2.4907
   35.8000      84.93     2.4907
   35.9000      83.36     2.4908
   36.0000      83.59     2.4908
   36.1000      82.02     2.4908
   36.2000      84.45     2.4509
   36.3000      82.88     2.4509
   36.4000      81.31     2.4509
   36.5000      83.74     2.4510
   36.6000      82.17     2.4510
   36.7000      84.60     2.4110
   36.8000      83.03     2.4110
   36.9000      81.46     2.4111
   37.0000      81.69     2.4111
   37.1000      84.12     2.4111
   37.2000      82.54     2.4712
   37.3000      84.97     2.4712
   37.4000      83.40     2.4712
   37.5000      81.83     2.4712
   37.6000      84.26     2.4713
   37.7000      82.69     2.4313
   37.8000      85.12     2.4313
   37.9000      83.55     2.4314
   38.0000      83.78     2.4314
   38.1000      82.21     2.4314
   38.2000      84.64     2.4915
   38.3000      83.07     2.4915
   38.4000      85.49     2.4915
   38.5000      83.92     2.4916
   38.6000      82.35     2.4916
   38.7000      84.78     2.4916
   38.8000      83.21     2.4516
   38.9000      85.64     2.4517
   39.0000      85.87     2.4517
   39.1000      84.29     2.4517
   39.2000      82.72     2.4518
   39.3000      85.15     2.4118
   39.4000      83.58     2.4118
   39.5000      86.01     2.4119
   39.6000      84.44     2.4119
   39.7000      82.86     2.4119
   39.8000      85.29     2.4719
   39.9000      83.72     2.4720
   40.0000      83.95     2.4720
   40.1000      82.37     2.4720
   40.2000      84.80     2.4721
   40.3000      83.23     2.4321
   40.4000      85.66     2.4321
   40.5000      84.09     2.4322
   40.6000      82.51     2.4322
   40.7000      84.94     2.4322
   40.8000      83.37     2.4922
   40.9000      85.80     2.4923
   41.0000      86.02     2.4923
   41.1000      84.45     2.4923
   41.2000      82.88     2.4924
   41.3000      85.30     2.4524
   41.4000      83.73     2.4524
   41.5000      86.16     2.4525
   41.6000      84.59     2.4525
   41.7000      83.01     2.4525
   41.8000      85.44     2.4125
   41.9000      83.87     2.4126
   42.0000      84.09     2.4126
   42.1000      86.52     2.4126
   42.2000      84.95     2.4127
   42.3000      83.37     2.4727
   42.4000      85.80     2.4727
   42.5000      84.23     2.4728
   42.6000      86.65     2.4728
   42.7000      85.08     2.4728
   42.8000      83.50     2.4728
   42.9000      85.93     2.4329
   43.0000      86.16     2.4329
   43.1000      84.58     2.4329
   43.2000      87.01     2.4330
   43.3000      85.43     2.4330
   43.4000      83.86     2.4930
   43.5000      86.29     2.4931
   43.6000      84.71     2.4931
   43.7000      87.14     2.4931
   43.8000      85.56     2.4931
   43.9000      83.99     2.4532
   44.0000      84.21     2.4532
   44.1000      86.64     2.4532
   44.2000      85.07     2.4533
   44.3000      83.49     2.4533
   44.4000      85.92     2.4133
   44.5000      84.34     2.4134
   44.6000      86.77     2.4134
   44.7000      85.19     2.4134
   44.8000      83.62     2.4134
   44.9000      86.04     2.4735
   45.0000      86.27     2.4735
   45.1000      84.69     2.4735
   45.2000      87.12     2.4736
   45.3000      85.54     2.4736
   45.4000      83.97     2.4336
   45.5000      86.39     2.4337
   45.6000      84.81     2.4337
   45.7000      87.24     2.4337
   45.8000      85.66     2.4337
   45.9000      84.09     2.4938
   46.0000      84.31     2.4938
   46.1000      86.74     2.4938
   46.2000      85.16     2.4939
   46.3000      87.58     2.4939
   46.4000      86.01     2.4539
   46.5000      84.43     2.4540
   46.6000      86.86     2.4540
   46.7000      85.28     2.4540
   46.8000      87.70     2.4540
   46.9000      86.13     2.4541
   47.0000      86.35     2.4141
   47.1000      84.77     2.4141
   47.2000      87.20     2.4142
   47.3000      85.62     2.4142
   47.4000      88.05     2.4142
   47.5000      86.47     2.4743
   47.6000      84.89     2.4743
   47.7000      87.31     2.4743
   47.8000      85.74     2.4743
   47.9000      88.16     2.4744
   48.0000      84.38     2.4344
   48.1000      86.81     2.4344
   48.2000      85.23     2.4345
   48.3000      87.65     2.4345
   48.4000      86.08     2.4345
   48.5000      84.50     2.4946
