~V
VERS.              2.0:   CWLS Log ASCII Standard - VERSION 2.0
WRAP.               NO:   One Line per Depth Step

~W
STRT.M             0.0000:  Start Depth
STOP.M         510.0000:  Stop Depth
STEP.M             0.1000:  Step
NULL.          -999.2500:  Null Value
COMP.   Fission Uranium Corp:   Company
WELL.   PLS-22-08:   Well Name
FLD .   Patterson Lake South:   Field
LOC .   Athabasca Basin:   Location
PROV.   Saskatchewan:   Province
CTRY.   Canada:   Country
DATE.   2022-02-14:   Date

~C
DEPT.M      : Depth
GR  .GAPI   : Gamma Ray
RHOB.G/CC   : Bulk Density

~A
# ...
  388.8000      88.74     2.5766
  388.9000      89.54     2.5767
  389.0000      88.15     2.5567
  389.1000      88.95     2.5567
  389.2000      89.75     2.5368
  389.3000      90.55     2.5368
  389.4000      91.36     2.5368
  389.5000      88.16     2.5169
  389.6000      88.96     2.5169
  389.7000      89.76     2.5969
  389.8000      90.57     2.5969
  389.9000      91.37     2.5970
  390.0000      89.97     2.5770
  390.1000      90.77     2.5770
  390.2000      91.58     2.5771
  390.3000      88.38     2.5571
  390.4000      89.18     2.5571
  390.5000      89.98     2.5372
  390.6000      90.78     2.5372
  390.7000      91.58     2.5372
  390.8000      88.39     2.5172
  390.9000      89.19     2.5173
  391.0000      91.79     2.5973
  391.1000      88.59     2.5973
  391.2000      89.39     2.5974
  391.3000      90.19     2.5774
  391.4000      90.99     2.5774
  391.5000      91.79     2.5575
  391.6000      88.60     2.5575
  391.7000      89.40     2.5575
  391.8000      90.20     2.5375
  391.9000      91.00     2.5376
  392.0000      89.60     2.5376
  392.1000      90.40     2.5176
  392.2000      91.20     2.5177
  392.3000      88.00     2.5977
  392.4000      88.80     2.5977
  392.5000      89.60     2.5978
  392.6000      90.40     2.5778
  392.7000      91.20     2.5778
  392.8000      88.00     2.5578
  392.9000      88.80     2.5579
  393.0000      91.40     2.5579
  393.1000      88.20     2.5379
  393.2000      89.00     2.5380
  393.3000      89.80     2.5180
  393.4000      90.60     2.5180
  393.5000      91.40     2.5181
  393.6000      88.20     2.5981
  393.7000      89.00     2.5981
  393.8000      89.80     2.5781
  393.9000      90.59     2.5782
  394.0000      89.19     2.5782
  394.1000      89.99     2.5582
  394.2000      90.79     2.5583
  394.3000      91.59     2.5583
  394.4000      88.39     2.5383
  394.5000      89.19     2.5384
  394.6000      89.99     2.5184
  394.7000      90.78     2.5184
  394.8000      91.58     2.5184
  394.9000      88.38     2.5985
  395.0000      90.98     2.5985
  395.1000      91.78     2.5785
  395.2000      88.57     2.5786
  395.3000      89.37     2.5786
  395.4000      90.17     2.5586
  395.5000      90.97     2.5587
  395.6000      91.77     2.5387
  395.7000      88.56     2.5387
  395.8000      89.36     2.5387
  395.9000      90.16     2.5188
  396.0000      88.76     2.5188
  396.1000      89.55     2.5988
  396.2000      90.35     2.5989
  396.3000      91.15     2.5989
  396.4000      87.95     2.5789
  396.5000      88.74     2.5790
  396.6000      89.54     2.5790
  396.7000      90.34     2.5590
  396.8000      91.13     2.5590
  396.9000      87.93     2.5391
  397.0000      90.53     2.5391
  397.1000      91.32     2.5391
  397.2000      88.12     2.5192
  397.3000      88.92     2.5192
  397.4000      89.71     2.5992
  397.5000      90.51     2.5993
  397.6000      91.30     2.5993
  397.7000      88.10     2.5793
  397.8000      88.90     2.5793
  397.9000      89.69     2.5594
  398.0000    2500.00     2.5594
  398.1000    2536.58     2.5594
  398.2000    2572.77     2.5395
  398.3000    2608.16     2.5395
  398.4000    2642.36     2.5395
  398.5000    2675.00     2.5196
  398.6000    2705.72     2.5196
  398.7000    2734.20     2.5996
  398.8000    2760.10     2.5996
  398.9000    2783.16     2.5997
  399.0000    2803.11     2.5797
  399.1000    2819.74     2.5797
  399.2000    2832.87     2.5598
  399.3000    2842.35     2.5598
  399.4000    2848.08     2.5598
  399.5000    2850.00     2.5399
  399.6000    2848.08     2.5399
  399.7000    2842.35     2.5199
  399.8000    2832.87     2.5199
  399.9000    2819.74     2.5200
  400.0000    2803.11     2.6000
  400.1000    2783.16     2.6000
  400.2000    2760.10     2.5801
  400.3000    2734.20     2.5801
  400.4000    2705.72     2.5801
  400.5000    2675.00     2.5602
  400.6000    2642.36     2.5602
  400.7000    2608.16     2.5602
  400.8000    2572.77     2.5402
  400.9000    2536.58     2.5403
  401.0000      89.53     2.5203
  401.1000      90.32     2.5203
  401.2000      91.11     2.5204
  401.3000      87.90     2.6004
  401.4000      88.70     2.6004
  401.5000      89.49     2.5805
  401.6000      90.28     2.5805
  401.7000      91.08     2.5805
  401.8000      87.87     2.5605
  401.9000      88.66     2.5606
  402.0000      91.25     2.5406
  402.1000      88.05     2.5406
  402.2000      88.84     2.5407
  402.3000      89.63     2.5207
  402.4000      90.42     2.5207
  402.5000      91.22     2.6008
  402.6000      88.01     2.6008
  402.7000      88.80     2.6008
  402.8000      89.59     2.5808
  402.9000      90.39     2.5809
  403.0000      88.98     2.5809
  403.1000      89.77     2.5609
  403.2000      90.56     2.5610
  403.3000      91.35     2.5410
  403.4000      88.14     2.5410
  403.5000      88.94     2.5411
  403.6000      89.73     2.5211
  403.7000      90.52     2.5211
  403.8000      91.31     2.6011
  403.9000      88.10     2.6012
  404.0000      90.69     2.6012
  404.1000      87.48     2.5812
  404.2000      88.27     2.5813
  404.3000      89.06     2.5613
  404.4000      89.85     2.5613
  404.5000      90.65     2.5614
  404.6000      87.44     2.5414
  404.7000      88.23     2.5414
  404.8000      89.02     2.5414
  404.9000      89.81     2.5215
  405.0000      88.40     2.5215
  405.1000      89.19     2.6015
  405.2000      89.98     2.6016
  405.3000      90.77     2.6016
  405.4000      87.56     2.5816
  405.5000      88.35     2.5817
  405.6000      89.14     2.5617
  405.7000      89.93     2.5617
  405.8000      90.72     2.5617
  405.9000      87.51     2.5418
  406.0000      90.10     2.5418
  406.1000      90.89     2.5218
  406.2000      87.68     2.5219
  406.3000      88.46     2.5219
  406.4000      89.25     2.6019
  406.5000      90.04     2.6020
  406.6000      90.83     2.5820
  406.7000      87.62     2.5820
  406.8000      88.41     2.5820
  406.9000      89.20     2.5621
  407.0000      87.79     2.5621
  407.1000      88.58     2.5621
  407.2000      89.36     2.5422
  407.3000      90.15     2.5422
  407.4000      90.94     2.5222
  407.5000      87.73     2.5223
  407.6000      88.52     2.5223
  407.7000      89.31     2.6023
  407.8000      90.09     2.6023
  407.9000      90.88     2.5824
  408.0000      89.47     2.5824
  408.1000      90.26     2.5824
  408.2000      87.05     2.5625
  408.3000      87.83     2.5625
  408.4000      88.62     2.5425
  408.5000      89.41     2.5426
  408.6000      90.20     2.5426
  408.7000      86.98     2.5226
  408.8000      87.77     2.5226
  408.9000      88.56     2.6027
  409.0000      87.15     2.6027
  409.1000      87.93     2.6027
  409.2000      88.72     2.5828
  409.3000      89.51     2.5828
  409.4000      90.29     2.5828
  409.5000      87.08     2.5629
  409.6000      87.87     2.5629
  409.7000      88.65     2.5429
  409.8000      89.44     2.5429
  409.9000      90.23     2.5430
  410.0000      88.81     2.5230
  410.1000      89.60     2.5230
  410.2000      90.39     2.6031
  410.3000      87.17     2.6031
  410.4000      87.96     2.6031
  410.5000      88.75     2.5832
  410.6000      89.53     2.5832
  410.7000      90.32     2.5632
  410.8000      87.10     2.5632
  410.9000      87.89     2.5633
  411.0000      90.48     2.5433
  411.1000      87.26     2.5433
  411.2000      88.05     2.5434
  411.3000      88.83     2.5234
  411.4000      89.62     2.5234
  411.5000      90.40     2.6035
  411.6000      87.19     2.6035
  411.7000      87.97     2.6035
  411.8000      88.76     2.5835
  411.9000      89.54     2.5836
  412.0000      88.13     2.5636
  412.1000      88.91     2.5636
  412.2000      89.70     2.5637
  412.3000      86.48     2.5437
  412.4000      87.27     2.5437
  412.5000      88.05     2.5238
  412.6000      88.84     2.5238
  412.7000      89.62     2.5238
  412.8000      86.41     2.6038
  412.9000      87.19     2.6039
  413.0000      89.77     2.5839
