~V
VERS.              2.0:   CWLS Log ASCII Standard - VERSION 2.0
WRAP.               NO:   One Line per Depth Step

~W
STRT.M             0.0000:  Start Depth
STOP.M         510.0000:  Stop Depth
STEP.M             0.1000:  Step
NULL.          -999.2500:  Null Value
COMP.   Fission Uranium Corp:   Company
WELL.   PLS-22-08:   Well Name
FLD .   Patterson Lake South:   Field
LOC .   Athabasca Basin:   Location
PROV.   Saskatchewan:   Province
CTRY.   Canada:   Country
DATE.   2022-02-14:   Date

~C
DEPT.M      : Depth
GR  .GAPI   : Gamma Ray
RHOB.G/CC   : Bulk Density

~A
# ...
  413.1000      86.56     2.5839
  413.2000      87.34     2.5840
  413.3000      88.13     2.5640
  413.4000      88.91     2.5640
  413.5000      89.69     2.5641
  413.6000      86.48     2.5441
  413.7000      87.26     2.5441
  413.8000      88.05     2.5241
  413.9000      88.83     2.5242
  414.0000      87.41     2.5242
  414.1000      88.20     2.6042
  414.2000      88.98     2.6043
  414.3000      89.76     2.5843
  414.4000      86.55     2.5843
  414.5000      87.33     2.5844
  414.6000      88.11     2.5644
  414.7000      88.89     2.5644
  414.8000      89.68     2.5444
  414.9000      86.46     2.5445
  415.0000      89.04     2.5445
  415.1000      89.83     2.5245
  415.2000      86.61     2.5246
  415.3000      87.39     2.6046
  415.4000      88.17     2.6046
  415.5000      88.96     2.6047
  415.6000      89.74     2.5847
  415.7000      86.52     2.5847
  415.8000      87.30     2.5847
  415.9000      88.09     2.5648
  416.0000      86.67     2.5648
  416.1000      87.45     2.5448
  416.2000      88.23     2.5449
  416.3000      89.01     2.5449
  416.4000      85.79     2.5249
  416.5000      86.58     2.5250
  416.6000      87.36     2.6050
  416.7000      88.14     2.6050
  416.8000      88.92     2.6050
  416.9000      85.70     2.5851
  417.0000      88.28     2.5851
  417.1000      89.07     2.5651
  417.2000      85.85     2.5652
  417.3000      86.63     2.5652
  417.4000      87.41     2.5452
  417.5000      88.19     2.5453
  417.6000      88.97     2.5453
  417.7000      85.75     2.5253
  417.8000      86.53     2.5253
  417.9000      87.31     2.6054
  418.0000      85.89     2.6054
  418.1000      86.67     2.6054
  418.2000      87.45     2.5855
  418.3000      88.24     2.5855
  418.4000      89.02     2.5655
  418.5000      85.80     2.5656
  418.6000      86.58     2.5656
  418.7000      87.36     2.5456
  418.8000      88.14     2.5456
  418.9000      88.92     2.5257
  419.0000      87.50     2.5257
  419.1000      88.28     2.5257
  419.2000      89.06     2.6058
  419.3000      85.84     2.6058
  419.4000      86.62     2.5858
  419.5000      87.39     2.5859
  419.6000      88.17     2.5859
  419.7000      88.95     2.5659
  419.8000      85.73     2.5659
  419.9000      86.51     2.5660
  420.0000      85.09     2.5460
  420.1000      85.87     2.5460
  420.2000      86.65     2.5261
  420.3000      87.43     2.5261
  420.4000      88.21     2.5261
  420.5000      84.99     2.6062
  420.6000      85.77     2.6062
  420.7000      86.54     2.5862
  420.8000      87.32     2.5862
  420.9000      88.10     2.5863
  421.0000      86.68     2.5663
  421.1000      87.46     2.5663
  421.2000      88.24     2.5464
  421.3000      85.02     2.5464
  421.4000      85.79     2.5464
  421.5000      86.57     2.5265
  421.6000      87.35     2.5265
  421.7000      88.13     2.6065
  421.8000      84.91     2.6065
  421.9000      85.69     2.6066
  422.0000      88.26     2.5866
  422.1000      85.04     2.5866
  422.2000      85.82     2.5867
  422.3000      86.60     2.5667
  422.4000      87.37     2.5667
  422.5000      88.15     2.5468
  422.6000      84.93     2.5468
  422.7000      85.71     2.5468
  422.8000      86.48     2.5268
  422.9000      87.26     2.5269
  423.0000      85.84     2.6069
  423.1000      86.62     2.6069
  423.2000      87.39     2.6070
  423.3000      88.17     2.5870
  423.4000      84.95     2.5870
  423.5000      85.72     2.5671
  423.6000      86.50     2.5671
  423.7000      87.28     2.5671
  423.8000      88.05     2.5471
  423.9000      84.83     2.5472
  424.0000      87.41     2.5472
  424.1000      84.18     2.5272
  424.2000      84.96     2.5273
  424.3000      85.74     2.6073
  424.4000      86.51     2.6073
  424.5000      87.29     2.6074
  424.6000      84.07     2.5874
  424.7000      84.84     2.5874
  424.8000      85.62     2.5674
  424.9000      86.39     2.5675
  425.0000      84.97     2.5675
  425.1000      85.75     2.5475
  425.2000      86.52     2.5476
  425.3000      87.30     2.5276
  425.4000      84.07     2.5276
  425.5000      84.85     2.5277
  425.6000      85.62     2.6077
  425.7000      86.40     2.6077
  425.8000      87.18     2.5877
  425.9000      83.95     2.5878
  426.0000      86.53     2.5878
  426.1000      87.30     2.5678
  426.2000      84.08     2.5679
  426.3000      84.85     2.5679
  426.4000      85.63     2.5479
  426.5000      86.40     2.5480
  426.6000      87.18     2.5280
  426.7000      83.95     2.5280
  426.8000      84.73     2.5280
  426.9000      85.50     2.6081
  427.0000      84.08     2.6081
  427.1000      84.85     2.5881
  427.2000      85.62     2.5882
  427.3000      86.40     2.5882
  427.4000      87.17     2.5682
  427.5000      83.95     2.5683
  427.6000      84.72     2.5483
  427.7000      85.50     2.5483
  427.8000      86.27     2.5483
  427.9000      87.04     2.5284
  428.0000      85.62     2.5284
  428.1000      86.39     2.6084
  428.2000      83.17     2.6085
  428.3000      83.94     2.6085
  428.4000      84.71     2.5885
  428.5000      85.49     2.5886
  428.6000      86.26     2.5886
  428.7000      83.04     2.5686
  428.8000      83.81     2.5686
  428.9000      84.58     2.5487
  429.0000      83.16     2.5487
  429.1000      83.93     2.5487
  429.2000      84.70     2.5288
  429.3000      85.48     2.5288
  429.4000      86.25     2.6088
  429.5000      83.02     2.6089
  429.6000      83.80     2.6089
  429.7000      84.57     2.5889
  429.8000      85.34     2.5889
  429.9000      86.12     2.5690
  430.0000      84.69     2.5690
  430.1000      85.46     2.5690
  430.2000      86.23     2.5491
  430.3000      83.01     2.5491
  430.4000      83.78     2.5491
  430.5000      84.55     2.5292
  430.6000      85.32     2.5292
  430.7000      86.10     2.6092
  430.8000      82.87     2.6092
  430.9000      83.64     2.6093
  431.0000      86.21     2.5893
  431.1000      82.99     2.5893
  431.2000      83.76     2.5694
  431.3000      84.53     2.5694
  431.4000      85.30     2.5694
  431.5000      86.07     2.5495
  431.6000      82.85     2.5495
  431.7000      83.62     2.5295
  431.8000      84.39     2.5295
  431.9000      85.16     2.5296
  432.0000      83.73     2.6096
  432.1000      84.51     2.6096
  432.2000      85.28     2.5897
  432.3000      82.05     2.5897
  432.4000      82.82     2.5897
  432.5000      83.59     2.5698
  432.6000      84.36     2.5698
  432.7000      85.13     2.5698
  432.8000      81.91     2.5498
  432.9000      82.68     2.5499
  433.0000      85.25     2.5299
  433.1000      82.02     2.5299
  433.2000      82.79     2.5300
  433.3000      83.56     2.6100
  433.4000      84.33     2.6100
  433.5000      85.10     2.5901
  433.6000      81.87     2.5901
  433.7000      82.64     2.5901
  433.8000      83.41     2.5701
  433.9000      84.19     2.5702
  434.0000      82.76     2.5502
  434.1000      83.53     2.5502
  434.2000      84.30     2.5503
  434.3000      85.07     2.5303
  434.4000      81.84     2.5303
  434.5000      82.61     2.6104
  434.6000      83.38     2.6104
  434.7000      84.15     2.6104
  434.8000      84.92     2.5904
  434.9000      81.69     2.5905
  435.0000      84.26     2.5905
  435.1000      85.03     2.5705
  435.2000      81.80     2.5706
  435.3000      82.57     2.5506
  435.4000      83.34     2.5506
  435.5000      84.11     2.5507
  435.6000      84.88     2.5307
  435.7000      81.65     2.5307
  435.8000      82.42     2.6107
  435.9000      83.19     2.6108
  436.0000      81.76     2.6108
  436.1000      82.53     2.5908
  436.2000      83.30     2.5909
  436.3000      84.07     2.5709
  436.4000      80.83     2.5709
  436.5000      81.60     2.5710
  436.6000      82.37     2.5510
  436.7000      83.14     2.5510
  436.8000      83.91     2.5510
  436.9000      80.68     2.5311
  437.0000      83.25     2.5311
  437.1000      84.02     2.6111
  437.2000      80.79     2.6112
  437.3000      81.56     2.6112
