~V
VERS.              2.0:   CWLS Log ASCII Standard - VERSION 2.0
WRAP.               NO:   One Line per Depth Step

~W
STRT.M             0.0000:  Start Depth
STOP.M         510.0000:  Stop Depth
STEP.M             0.1000:  Step
NULL.          -999.2500:  Null Value
COMP.   Fission Uranium Corp:   Company
WELL.   PLS-22-08:   Well Name
FLD .   Patterson Lake South:   Field
LOC .   Athabasca Basin:   Location
PROV.   Saskatchewan:   Province
CTRY.   Canada:   Country
DATE.   2022-02-14:   Date

~C
DEPT.M      : Depth
GR  .GAPI   : Gamma Ray
RHOB.G/CC   : Bulk Density

~A
# ...
  461.7000      75.19     2.5985
  461.8000      71.95     2.5985
  461.9000      72.71     2.5786
  462.0000      75.27     2.5786
  462.1000      72.04     2.5786
  462.2000      72.80     2.5587
  462.3000      73.56     2.5587
  462.4000      74.32     2.5587
  462.5000      75.08     2.5388
  462.6000      71.84     2.5388
  462.7000      72.60     2.6188
  462.8000      73.36     2.6188
  462.9000      74.12     2.6189
  463.0000      72.68     2.5989
  463.1000      73.44     2.5989
  463.2000      74.20     2.5790
  463.3000      74.96     2.5790
  463.4000      71.72     2.5790
  463.5000      72.48     2.5591
  463.6000      73.24     2.5591
  463.7000      74.00     2.5391
  463.8000      74.76     2.5391
  463.9000      71.53     2.5392
  464.0000      74.09     2.6192
  464.1000      70.85     2.6192
  464.2000      71.61     2.5993
  464.3000      72.37     2.5993
  464.4000      73.13     2.5993
  464.5000      73.89     2.5794
  464.6000      70.65     2.5794
  464.7000      71.41     2.5794
  464.8000      72.17     2.5594
  464.9000      72.93     2.5595
  465.0000      71.49     2.5395
  465.1000      72.25     2.5395
  465.2000      73.01     2.5396
  465.3000      73.77     2.6196
  465.4000      70.53     2.6196
  465.5000      71.29     2.5997
  465.6000      72.05     2.5997
  465.7000      72.81     2.5997
  465.8000      73.57     2.5797
  465.9000      70.33     2.5798
  466.0000      72.89     2.5598
  466.1000      73.65     2.5598
  466.2000      70.41     2.5599
  466.3000      71.17     2.5399
  466.4000      71.93     2.5399
  466.5000      72.69     2.6200
  466.6000      73.45     2.6200
  466.7000      70.21     2.6200
  466.8000      70.97     2.6000
  466.9000      71.73     2.6001
  467.0000      70.29     2.6001
  467.1000      71.05     2.5801
  467.2000      71.81     2.5802
  467.3000      72.57     2.5602
  467.4000      73.33     2.5602
  467.5000      70.09     2.5603
  467.6000      70.85     2.5403
  467.7000      71.61     2.5403
  467.8000      72.37     2.6203
  467.9000      73.13     2.6204
  468.0000      71.69     2.6204
  468.1000      72.45     2.6004
  468.2000      69.21     2.6005
  468.3000      69.97     2.5805
  468.4000      70.73     2.5805
  468.5000      71.50     2.5806
  468.6000      72.26     2.5606
  468.7000      69.02     2.5606
  468.8000      69.78     2.5606
  468.9000      70.54     2.5407
  469.0000      69.10     2.5407
  469.1000      69.86     2.6207
  469.2000      70.62     2.6208
  469.3000      71.38     2.6208
  469.4000      72.14     2.6008
  469.5000      68.90     2.6009
  469.6000      69.66     2.5809
  469.7000      70.42     2.5809
  469.8000      71.18     2.5809
  469.9000      71.94     2.5610
  470.0000      70.50     2.5610
  470.1000      71.26     2.5410
  470.2000      72.02     2.5411
  470.3000      68.78     2.5411
  470.4000      69.54     2.6211
  470.5000      70.30     2.6212
  470.6000      71.06     2.6012
  470.7000      71.82     2.6012
  470.8000      68.58     2.6012
  470.9000      69.34     2.5813
  471.0000      71.90     2.5813
  471.1000      68.66     2.5813
  471.2000      69.42     2.5614
  471.3000      70.18     2.5614
  471.4000      70.94     2.5414
  471.5000      71.70     2.5415
  471.6000      68.46     2.5415
  471.7000      69.22     2.6215
  471.8000      69.98     2.6215
  471.9000      70.74     2.6016
  472.0000      69.30     2.6016
  472.1000      70.06     2.6016
  472.2000      70.82     2.5817
  472.3000      67.58     2.5817
  472.4000      68.34     2.5617
  472.5000      69.10     2.5618
  472.6000      69.86     2.5618
  472.7000      70.62     2.5418
  472.8000      67.38     2.5418
  472.9000      68.14     2.6219
  473.0000      70.70     2.6219
  473.1000      67.46     2.6219
  473.2000      68.22     2.6020
  473.3000      68.98     2.6020
  473.4000      69.74     2.6020
  473.5000      70.50     2.5821
  473.6000      67.26     2.5821
  473.7000      68.02     2.5621
  473.8000      68.78     2.5621
  473.9000      69.54     2.5622
  474.0000      68.10     2.5422
  474.1000      68.86     2.5422
  474.2000      69.62     2.6223
  474.3000      70.38     2.6223
  474.4000      67.14     2.6223
  474.5000      67.90     2.6024
  474.6000      68.66     2.6024
  474.7000      69.42     2.5824
  474.8000      70.18     2.5824
  474.9000      66.94     2.5825
  475.0000      69.50     2.5625
  475.1000      70.26     2.5625
  475.2000      67.02     2.5626
  475.3000      67.78     2.5426
  475.4000      68.54     2.5426
  475.5000      69.30     2.6227
  475.6000      70.06     2.6227
  475.7000      66.82     2.6227
  475.8000      67.58     2.6027
  475.9000      68.34     2.6028
  476.0000      66.90     2.5828
  476.1000      67.66     2.5828
  476.2000      68.42     2.5829
  476.3000      69.18     2.5629
  476.4000      65.94     2.5629
  476.5000      66.70     2.5430
  476.6000      67.46     2.5430
  476.7000      68.22     2.5430
  476.8000      68.98     2.6230
  476.9000      65.74     2.6231
  477.0000      68.30     2.6031
  477.1000      69.06     2.6031
  477.2000      65.82     2.6032
  477.3000      66.58     2.5832
  477.4000      67.34     2.5832
  477.5000      68.10     2.5833
  477.6000      68.86     2.5633
  477.7000      65.62     2.5633
  477.8000      66.38     2.5433
  477.9000      67.14     2.5434
  478.0000      65.70     2.5434
  478.1000      66.46     2.6234
  478.2000      67.22     2.6235
  478.3000      67.98     2.6035
  478.4000      68.75     2.6035
  478.5000      65.51     2.6036
  478.6000      66.27     2.5836
  478.7000      67.03     2.5836
  478.8000      67.79     2.5636
  478.9000      68.55     2.5637
  479.0000      67.11     2.5637
  479.1000      67.87     2.5437
  479.2000      68.63     2.5438
  479.3000      65.39     2.6238
  479.4000      66.15     2.6238
  479.5000      66.91     2.6239
  479.6000      67.67     2.6039
  479.7000      68.43     2.6039
  479.8000      65.19     2.6039
  479.9000      65.95     2.5840
  480.0000      64.51     2.5840
  480.1000      65.27     2.5640
  480.2000      66.03     2.5641
  480.3000      66.80     2.5641
  480.4000      67.56     2.5441
  480.5000      64.32     2.5442
  480.6000      65.08     2.6242
  480.7000      65.84     2.6242
  480.8000      66.60     2.6242
  480.9000      67.36     2.6043
  481.0000      65.92     2.6043
  481.1000      66.68     2.5843
  481.2000      67.44     2.5844
  481.3000      64.20     2.5844
  481.4000      64.96     2.5644
  481.5000      65.72     2.5645
  481.6000      66.49     2.5645
  481.7000      67.25     2.5445
  481.8000      64.01     2.5445
  481.9000      64.77     2.6246
  482.0000      67.33     2.6246
  482.1000      64.09     2.6246
  482.2000      64.85     2.6047
  482.3000      65.61     2.6047
  482.4000      66.37     2.5847
  482.5000      67.13     2.5848
  482.6000      63.89     2.5848
  482.7000      64.66     2.5648
  482.8000      65.42     2.5648
  482.9000      66.18     2.5449
  483.0000      64.74     2.5449
  483.1000      65.50     2.5449
  483.2000      66.26     2.6250
  483.3000      67.02     2.6250
  483.4000      63.78     2.6050
  483.5000      64.54     2.6051
  483.6000      65.31     2.6051
  483.7000      66.07     2.5851
  483.8000      66.83     2.5851
  483.9000      63.59     2.5852
  484.0000      66.15     2.5652
  484.1000      62.91     2.5652
  484.2000      63.67     2.5453
  484.3000      64.43     2.5453
  484.4000      65.20     2.5453
  484.5000      65.96     2.6254
  484.6000      62.72     2.6254
  484.7000      63.48     2.6054
  484.8000      64.24     2.6054
  484.9000      65.00     2.6055
  485.0000      63.56     2.5855
  485.1000      64.33     2.5855
  485.2000      65.09     2.5656
  485.3000      65.85     2.5656
  485.4000      62.61     2.5656
  485.5000      63.37     2.5457
  485.6000      64.13     2.5457
  485.7000      64.90     2.6257
  485.8000      65.66     2.6257
  485.9000      62.42     2.6258
