~V
VERS.              2.0:   CWLS Log ASCII Standard - VERSION 2.0
WRAP.               NO:   One Line per Depth Step

~W
STRT.M             0.0000:  Start Depth
STOP.M         510.0000:  Stop Depth
STEP.M             0.1000:  Step
NULL.          -999.2500:  Null Value
COMP.   Fission Uranium Corp:   Company
WELL.   PLS-22-08:   Well Name
FLD .   Patterson Lake South:   Field
LOC .   Athabasca Basin:   Location
PROV.   Saskatchewan:   Province
CTRY.   Canada:   Country
DATE.   2022-02-14:   Date

~C
DEPT.M      : Depth
GR  .GAPI   : Gamma Ray
RHOB.G/CC   : Bulk Density

~A
# ...
  121.5000      84.46     2.5264
  121.6000      82.03     2.5265
  121.7000      83.60     2.5265
  121.8000      81.17     2.5065
  121.9000      82.74     2.5066
  122.0000      84.31     2.4866
  122.1000      83.68     2.4866
  122.2000      81.25     2.4867
  122.3000      82.82     2.4667
  122.4000      84.39     2.4667
  122.5000      81.96     2.4467
  122.6000      83.52     2.4468
  122.7000      81.09     2.4468
  122.8000      82.66     2.5268
  122.9000      84.23     2.5269
  123.0000      81.80     2.5069
  123.1000      81.17     2.5069
  123.2000      82.74     2.5070
  123.3000      84.31     2.4870
  123.4000      81.88     2.4870
  123.5000      83.44     2.4870
  123.6000      81.01     2.4671
  123.7000      82.58     2.4671
  123.8000      84.15     2.4471
  123.9000      81.72     2.4472
  124.0000      83.29     2.4472
  124.1000      82.66     2.5272
  124.2000      80.22     2.5273
  124.3000      81.79     2.5073
  124.4000      83.36     2.5073
  124.5000      80.93     2.5073
  124.6000      82.50     2.4874
  124.7000      80.07     2.4874
  124.8000      81.63     2.4674
  124.9000      83.20     2.4675
  125.0000      80.77     2.4675
  125.1000      80.14     2.4475
  125.2000      81.71     2.4476
  125.3000      83.27     2.5276
  125.4000      80.84     2.5276
  125.5000      82.41     2.5276
  125.6000      79.98     2.5077
  125.7000      81.54     2.5077
  125.8000      83.11     2.5077
  125.9000      80.68     2.4878
  126.0000      82.25     2.4878
  126.1000      81.61     2.4678
  126.2000      83.18     2.4679
  126.3000      80.75     2.4679
  126.4000      82.32     2.4479
  126.5000      79.88     2.4479
  126.6000      81.45     2.5280
  126.7000      83.02     2.5280
  126.8000      80.58     2.5280
  126.9000      82.15     2.5081
  127.0000      79.72     2.5081
  127.1000      83.09     2.4881
  127.2000      80.65     2.4882
  127.3000      82.22     2.4882
  127.4000      79.79     2.4682
  127.5000      81.35     2.4682
  127.6000      82.92     2.4683
  127.7000      80.49     2.4483
  127.8000      82.05     2.4483
  127.9000      79.62     2.5284
  128.0000      81.19     2.5284
  128.1000      82.15     2.4484
  128.2000      79.72     2.5285
  128.3000      81.29     2.5285
  128.4000      78.85     2.5085
  128.5000      80.42     2.5085
  128.6000      81.99     2.5086
  128.7000      79.55     2.4886
  128.8000      81.12     2.4886
  128.9000      78.68     2.4687
  129.0000      80.25     2.4687
  129.1000      79.62     2.4687
  129.2000      81.18     2.4488
  129.3000      78.75     2.4488
  129.4000      80.31     2.5288
  129.5000      81.88     2.5288
  129.6000      79.45     2.5289
  129.7000      81.01     2.5089
  129.8000      78.58     2.5089
  129.9000      80.14     2.5090
  130.0000      81.71     2.4890
  130.1000      81.08     2.4890
  130.2000      78.64     2.4691
  130.3000      80.21     2.4691
  130.4000      81.77     2.4691
  130.5000      79.34     2.4491
  130.6000      80.90     2.4492
  130.7000      78.47     2.5292
  130.8000      80.03     2.5292
  130.9000      81.60     2.5293
  131.0000      79.17     2.5093
  131.1000      78.53     2.4893
  131.2000      80.10     2.4894
  131.3000      81.66     2.4894
  131.4000      79.23     2.4894
  131.5000      80.79     2.4894
  131.6000      78.36     2.4495
  131.7000      79.92     2.4495
  131.8000      81.49     2.4495
  131.9000      79.05     2.4496
  132.0000      80.62     2.4496
  132.1000      79.98     2.5096
  132.2000      77.55     2.5097
  132.3000      79.11     2.5097
  132.4000      80.68     2.5097
  132.5000      78.24     2.5097
  132.6000      79.81     2.4698
  132.7000      77.37     2.4698
  132.8000      78.93     2.4698
  132.9000      80.50     2.4699
  133.0000      78.06     2.4699
  133.1000      77.43     2.4699
  133.2000      78.99     2.5300
  133.3000      80.56     2.5300
  133.4000      78.12     2.5300
  133.5000      79.69     2.5300
  133.6000      77.25     2.5301
  133.7000      78.81     2.4901
  133.8000      80.38     2.4901
  133.9000      77.94     2.4902
  134.0000      79.51     2.4902
  134.1000      78.87     2.4902
  134.2000      80.44     2.4503
  134.3000      78.00     2.4503
  134.4000      79.56     2.4503
  134.5000      77.13     2.4503
  134.6000      78.69     2.4504
  134.7000      80.26     2.5104
  134.8000      77.82     2.5104
  134.9000      79.38     2.5105
  135.0000      76.95     2.5105
  135.1000      80.31     2.5105
  135.2000      77.88     2.4706
  135.3000      79.44     2.4706
  135.4000      77.00     2.4706
  135.5000      78.57     2.4706
  135.6000      80.13     2.4707
  135.7000      77.69     2.5307
  135.8000      79.26     2.5307
  135.9000      76.82     2.5308
  136.0000      78.38     2.5308
  136.1000      77.75     2.5308
  136.2000      79.31     2.4909
  136.3000      76.87     2.4909
  136.4000      78.44     2.4909
  136.5000      76.00     2.4909
  136.6000      77.56     2.4910
  136.7000      79.13     2.4510
  136.8000      76.69     2.4510
  136.9000      78.25     2.4511
  137.0000      75.82     2.4511
  137.1000      79.18     2.4511
  137.2000      76.74     2.5112
  137.3000      78.31     2.5112
  137.4000      75.87     2.5112
  137.5000      77.43     2.5112
  137.6000      79.00     2.5113
  137.7000      76.56     2.5113
  137.8000      78.12     2.4713
  137.9000      75.69     2.4714
  138.0000      77.25     2.4714
  138.1000      76.61     2.4714
  138.2000      78.17     2.4715
  138.3000      75.74     2.5315
  138.4000      77.30     2.5315
  138.5000      78.86     2.5315
  138.6000      76.42     2.5316
  138.7000      77.99     2.5316
  138.8000      75.55     2.4916
  138.9000      77.11     2.4917
  139.0000      78.68     2.4917
  139.1000      78.04     2.4917
  139.2000      75.60     2.4918
  139.3000      77.16     2.4518
  139.4000      78.73     2.4518
  139.5000      76.29     2.4518
  139.6000      77.85     2.4519
  139.7000      75.41     2.4519
  139.8000      76.98     2.5119
  139.9000      78.54     2.5120
  140.0000      76.10     2.5120
  140.1000      75.46     2.5120
  140.2000      77.02     2.5121
  140.3000      74.59     2.4721
  140.4000      76.15     2.4721
  140.5000      77.71     2.4721
  140.6000      75.27     2.4722
  140.7000      76.84     2.4722
  140.8000      74.40     2.5322
  140.9000      75.96     2.5323
  141.0000      77.52     2.5323
  141.1000      76.88     2.5323
  141.2000      74.45     2.5324
  141.3000      76.01     2.4924
  141.4000      77.57     2.4924
  141.5000      75.13     2.4924
  141.6000      76.69     2.4925
  141.7000      74.26     2.4925
  141.8000      75.82     2.4925
  141.9000      77.38     2.4526
  142.0000      74.94     2.4526
  142.1000      74.30     2.4526
  142.2000      75.86     2.4527
  142.3000      77.43     2.4527
  142.4000      74.99     2.5127
  142.5000      76.55     2.5127
  142.6000      74.11     2.5128
  142.7000      75.67     2.5128
  142.8000      77.23     2.5128
  142.9000      74.80     2.4729
  143.0000      76.36     2.4729
  143.1000      75.72     2.4729
  143.2000      77.28     2.4730
  143.3000      74.84     2.4730
  143.4000      76.40     2.5330
  143.5000      73.97     2.5330
  143.6000      75.53     2.5331
  143.7000      77.09     2.5331
  143.8000      74.65     2.5331
  143.9000      76.21     2.4932
  144.0000      73.77     2.4932
  144.1000      73.13     2.4932
  144.2000      74.70     2.4933
  144.3000      76.26     2.4933
  144.4000      73.82     2.4533
  144.5000      75.38     2.4533
  144.6000      72.94     2.4534
  144.7000      74.50     2.4534
  144.8000      76.06     2.4534
  144.9000      73.62     2.5135
  145.0000      75.18     2.5135
  145.1000      74.55     2.5135
  145.2000      76.11     2.5136
  145.3000      73.67     2.5136
  145.4000      75.23     2.4736
  145.5000      72.79     2.4736
  145.6000      74.35     2.4737
  145.7000      75.91     2.4737
