~V
VERS.              2.0:   CWLS Log ASCII Standard - VERSION 2.0
WRAP.               NO:   One Line per Depth Step

~W
STRT.M             0.0000:  Start Depth
STOP.M         510.0000:  Stop Depth
STEP.M             0.1000:  Step
NULL.          -999.2500:  Null Value
COMP.   Fission Uranium Corp:   Company
WELL.   PLS-22-08:   Well Name
FLD .   Patterson Lake South:   Field
LOC .   Athabasca Basin:   Location
PROV.   Saskatchewan:   Province
CTRY.   Canada:   Country
DATE.   2022-02-14:   Date

~C
DEPT.M      : Depth
GR  .GAPI   : Gamma Ray
RHOB.G/CC   : Bulk Density

~A
# ...
  364.5000      88.10     2.5694
  364.6000      84.92     2.5694
  364.7000      85.75     2.5494
  364.8000      86.57     2.5494
  364.9000      87.39     2.5295
  365.0000      86.01     2.5295
  365.1000      86.83     2.5295
  365.2000      87.65     2.5096
  365.3000      88.47     2.5096
  365.4000      85.29     2.5896
  365.5000      86.11     2.5897
  365.6000      86.93     2.5897
  365.7000      87.75     2.5697
  365.8000      88.57     2.5697
  365.9000      85.40     2.5498
  366.0000      88.02     2.5498
  366.1000      88.84     2.5498
  366.2000      85.66     2.5299
  366.3000      86.48     2.5299
  366.4000      87.30     2.5299
  366.5000      88.12     2.5100
  366.6000      88.94     2.5100
  366.7000      85.76     2.5900
  366.8000      86.58     2.5900
  366.9000      87.40     2.5901
  367.0000      86.02     2.5701
  367.1000      86.84     2.5701
  367.2000      87.66     2.5502
  367.3000      88.47     2.5502
  367.4000      89.29     2.5502
  367.5000      86.11     2.5303
  367.6000      86.93     2.5303
  367.7000      87.75     2.5103
  367.8000      88.57     2.5103
  367.9000      89.39     2.5104
  368.0000      88.01     2.5904
  368.1000      88.83     2.5904
  368.2000      85.65     2.5705
  368.3000      86.47     2.5705
  368.4000      87.28     2.5705
  368.5000      88.10     2.5506
  368.6000      88.92     2.5506
  368.7000      85.74     2.5506
  368.8000      86.56     2.5306
  368.9000      87.38     2.5307
  369.0000      86.00     2.5107
  369.1000      86.81     2.5107
  369.2000      87.63     2.5108
  369.3000      88.45     2.5908
  369.4000      89.27     2.5908
  369.5000      86.09     2.5709
  369.6000      86.90     2.5709
  369.7000      87.72     2.5709
  369.8000      88.54     2.5509
  369.9000      89.36     2.5510
  370.0000      87.97     2.5310
  370.1000      88.79     2.5310
  370.2000      89.61     2.5311
  370.3000      86.43     2.5111
  370.4000      87.24     2.5111
  370.5000      88.06     2.5912
  370.6000      88.88     2.5912
  370.7000      89.70     2.5912
  370.8000      86.51     2.5712
  370.9000      87.33     2.5713
  371.0000      89.95     2.5713
  371.1000      86.76     2.5513
  371.2000      87.58     2.5514
  371.3000      88.40     2.5314
  371.4000      89.21     2.5314
  371.5000      90.03     2.5315
  371.6000      86.85     2.5115
  371.7000      87.66     2.5115
  371.8000      88.48     2.5915
  371.9000      89.29     2.5916
  372.0000      87.91     2.5916
  372.1000      88.73     2.5716
  372.2000      89.54     2.5717
  372.3000      86.36     2.5517
  372.4000      87.17     2.5517
  372.5000      87.99     2.5518
  372.6000      88.81     2.5318
  372.7000      89.62     2.5318
  372.8000      86.44     2.5318
  372.9000      87.25     2.5119
  373.0000      89.87     2.5119
  373.1000      86.68     2.5919
  373.2000      87.50     2.5920
  373.3000      88.31     2.5920
  373.4000      89.13     2.5720
  373.5000      89.94     2.5721
  373.6000      86.76     2.5521
  373.7000      87.57     2.5521
  373.8000      88.39     2.5521
  373.9000      89.20     2.5322
  374.0000      87.82     2.5322
  374.1000      88.63     2.5122
  374.2000      89.45     2.5123
  374.3000      90.26     2.5123
  374.4000      87.08     2.5923
  374.5000      87.89     2.5924
  374.6000      88.70     2.5724
  374.7000      89.52     2.5724
  374.8000      90.33     2.5724
  374.9000      87.15     2.5525
  375.0000      89.76     2.5525
  375.1000      90.57     2.5525
  375.2000      87.39     2.5326
  375.3000      88.20     2.5326
  375.4000      89.01     2.5126
  375.5000      89.83     2.5127
  375.6000      90.64     2.5127
  375.7000      87.46     2.5927
  375.8000      88.27     2.5927
  375.9000      89.08     2.5728
  376.0000      87.69     2.5728
  376.1000      88.51     2.5728
  376.2000      89.32     2.5529
  376.3000      90.13     2.5529
  376.4000      86.95     2.5329
  376.5000      87.76     2.5330
  376.6000      88.57     2.5330
  376.7000      89.38     2.5130
  376.8000      90.20     2.5130
  376.9000      87.01     2.5931
  377.0000      89.62     2.5931
  377.1000      90.43     2.5931
  377.2000      87.25     2.5732
  377.3000      88.06     2.5732
  377.4000      88.87     2.5732
  377.5000      89.68     2.5533
  377.6000      90.49     2.5533
  377.7000      87.31     2.5333
  377.8000      88.12     2.5333
  377.9000      88.93     2.5334
  378.0000      87.54     2.5134
  378.1000      88.35     2.5134
  378.2000      89.16     2.5935
  378.3000      89.98     2.5935
  378.4000      90.79     2.5935
  378.5000      87.60     2.5736
  378.6000      88.41     2.5736
  378.7000      89.22     2.5536
  378.8000      90.03     2.5536
  378.9000      90.84     2.5537
  379.0000      89.45     2.5337
  379.1000      90.26     2.5337
  379.2000      91.08     2.5338
  379.3000      87.89     2.5138
  379.4000      88.70     2.5138
  379.5000      89.51     2.5939
  379.6000      90.32     2.5939
  379.7000      91.13     2.5939
  379.8000      87.94     2.5739
  379.9000      88.75     2.5740
  380.0000      87.36     2.5540
  380.1000      88.17     2.5540
  380.2000      88.98     2.5541
  380.3000      89.79     2.5341
  380.4000      90.60     2.5341
  380.5000      87.41     2.5142
  380.6000      88.22     2.5142
  380.7000      89.03     2.5142
  380.8000      89.84     2.5942
  380.9000      90.65     2.5943
  381.0000      89.26     2.5743
  381.1000      90.06     2.5743
  381.2000      90.87     2.5744
  381.3000      87.68     2.5544
  381.4000      88.49     2.5544
  381.5000      89.30     2.5545
  381.6000      90.11     2.5345
  381.7000      90.92     2.5345
  381.8000      87.73     2.5145
  381.9000      88.54     2.5146
  382.0000      91.14     2.5146
  382.1000      87.95     2.5946
  382.2000      88.76     2.5947
  382.3000      89.57     2.5747
  382.4000      90.38     2.5747
  382.5000      91.19     2.5748
  382.6000      87.99     2.5548
  382.7000      88.80     2.5548
  382.8000      89.61     2.5348
  382.9000      90.42     2.5349
  383.0000      89.02     2.5349
  383.1000      89.83     2.5149
  383.2000      90.64     2.5150
  383.3000      91.45     2.5950
  383.4000      88.26     2.5950
  383.5000      89.06     2.5951
  383.6000      89.87     2.5751
  383.7000      90.68     2.5751
  383.8000      91.48     2.5751
  383.9000      88.29     2.5552
  384.0000      90.90     2.5552
  384.1000      87.70     2.5352
  384.2000      88.51     2.5353
  384.3000      89.32     2.5353
  384.4000      90.13     2.5153
  384.5000      90.93     2.5154
  384.6000      87.74     2.5954
  384.7000      88.54     2.5954
  384.8000      89.35     2.5954
  384.9000      90.16     2.5755
  385.0000      88.76     2.5755
  385.1000      89.57     2.5555
  385.2000      90.38     2.5556
  385.3000      91.18     2.5556
  385.4000      87.99     2.5356
  385.5000      88.79     2.5357
  385.6000      89.60     2.5357
  385.7000      90.40     2.5157
  385.8000      91.21     2.5157
  385.9000      88.02     2.5958
  386.0000      90.62     2.5958
  386.1000      91.43     2.5958
  386.2000      88.23     2.5759
  386.3000      89.04     2.5759
  386.4000      89.84     2.5559
  386.5000      90.65     2.5560
  386.6000      91.45     2.5560
  386.7000      88.26     2.5360
  386.8000      89.06     2.5360
  386.9000      89.87     2.5161
  387.0000      88.47     2.5161
  387.1000      89.27     2.5161
  387.2000      90.08     2.5962
  387.3000      90.88     2.5962
  387.4000      91.69     2.5762
  387.5000      88.49     2.5763
  387.6000      89.30     2.5763
  387.7000      90.10     2.5563
  387.8000      90.90     2.5563
  387.9000      91.71     2.5564
  388.0000      90.31     2.5364
  388.1000      91.12     2.5364
  388.2000      87.92     2.5165
  388.3000      88.72     2.5165
  388.4000      89.53     2.5165
  388.5000      90.33     2.5966
  388.6000      91.13     2.5966
  388.7000      87.94     2.5766
