~V
VERS.              2.0:   CWLS Log ASCII Standard - VERSION 2.0
WRAP.               NO:   One Line per Depth Step

~W
STRT.M             0.0000:  Start Depth
STOP.M         510.0000:  Stop Depth
STEP.M             0.1000:  Step
NULL.          -999.2500:  Null Value
COMP.   Fission Uranium Corp:   Company
WELL.   PLS-22-08:   Well Name
FLD .   Patterson Lake South:   Field
LOC .   Athabasca Basin:   Location
PROV.   Saskatchewan:   Province
CTRY.   Canada:   Country
DATE.   2022-02-14:   Date

~C
DEPT.M      : Depth
GR  .GAPI   : Gamma Ray
RHOB.G/CC   : Bulk Density

~A
# ...
  194.4000      57.22     2.4883
  194.5000      54.79     2.4883
  194.6000      56.36     2.5484
  194.7000      57.93     2.5484
  194.8000      55.50     2.5484
  194.9000      57.07     2.5485
  195.0000      54.64     2.5485
  195.1000      58.02     2.5085
  195.2000      55.59     2.5086
  195.3000      57.16     2.5086
  195.4000      54.73     2.5086
  195.5000      56.30     2.5086
  195.6000      57.87     2.4687
  195.7000      55.44     2.4687
  195.8000      57.01     2.4687
  195.9000      54.59     2.4688
  196.0000      56.16     2.4688
  196.1000      55.53     2.5288
  196.2000      57.10     2.5289
  196.3000      54.67     2.5289
  196.4000      56.24     2.5289
  196.5000      53.82     2.5289
  196.6000      55.39     2.4890
  196.7000      56.96     2.4890
  196.8000      54.53     2.4890
  196.9000      56.10     2.4891
  197.0000      53.68     2.4891
  197.1000      57.05     2.5491
  197.2000      54.62     2.5492
  197.3000      56.19     2.5492
  197.4000      53.76     2.5492
  197.5000      55.34     2.5492
  197.6000      56.91     2.5493
  197.7000      54.48     2.5093
  197.8000      56.05     2.5093
  197.9000      53.63     2.5094
  198.0000      55.20     2.5094
  198.1000      54.57     2.5094
  198.2000      56.14     2.4695
  198.3000      53.72     2.4695
  198.4000      55.29     2.4695
  198.5000      56.86     2.4695
  198.6000      54.44     2.4696
  198.7000      56.01     2.5296
  198.8000      53.58     2.5296
  198.9000      55.16     2.5297
  199.0000      56.73     2.5297
  199.1000      56.10     2.5297
  199.2000      53.68     2.4898
  199.3000      55.25     2.4898
  199.4000      56.82     2.4898
  199.5000      54.40     2.4898
  199.6000      55.97     2.4899
  199.7000      53.54     2.5499
  199.8000      55.12     2.5499
  199.9000      56.69     2.5500
  200.0000      54.26     2.5500
  200.1000      53.64     2.5500
  200.2000      55.21     2.5101
  200.3000      52.79     2.5101
  200.4000      54.36     2.5101
  200.5000      55.93     2.5101
  200.6000      53.51     2.5102
  200.7000      55.08     2.4702
  200.8000      52.66     2.4702
  200.9000      54.23     2.4703
  201.0000      55.81     2.4703
  201.1000      55.18     2.4703
  201.2000      52.75     2.5304
  201.3000      54.33     2.5304
  201.4000      55.90     2.5304
  201.5000      53.48     2.5304
  201.6000      55.05     2.5305
  201.7000      52.63     2.5305
  201.8000      54.20     2.4905
  201.9000      55.78     2.4906
  202.0000      53.35     2.4906
  202.1000      52.73     2.4906
  202.2000      54.30     2.4907
  202.3000      55.88     2.5507
  202.4000      53.45     2.5507
  202.5000      55.03     2.5507
  202.6000      52.60     2.5508
  202.7000      54.18     2.5508
  202.8000      55.76     2.5108
  202.9000      53.33     2.5109
  203.0000      54.91     2.5109
  203.1000      54.28     2.5109
  203.2000      55.86     2.5110
  203.3000      53.43     2.4710
  203.4000      55.01     2.4710
  203.5000      52.59     2.4710
  203.6000      54.16     2.4711
  203.7000      55.74     2.4711
  203.8000      53.32     2.5311
  203.9000      54.89     2.5312
  204.0000      52.47     2.5312
  204.1000      51.84     2.5312
  204.2000      53.42     2.5313
  204.3000      55.00     2.4913
  204.4000      52.57     2.4913
  204.5000      54.15     2.4913
  204.6000      51.73     2.4914
  204.7000      53.30     2.4914
  204.8000      54.88     2.5514
  204.9000      52.46     2.5515
  205.0000      54.03     2.5515
  205.1000      53.41     2.5515
  205.2000      54.99     2.5516
  205.3000      52.57     2.5116
  205.4000      54.14     2.5116
  205.5000      51.72     2.5116
  205.6000      53.30     2.5117
  205.7000      54.88     2.5117
  205.8000      52.45     2.5117
  205.9000      54.03     2.4718
  206.0000      51.61     2.4718
  206.1000      54.99     2.4718
  206.2000      52.56     2.4719
  206.3000      54.14     2.4719
  206.4000      51.72     2.5319
  206.5000      53.30     2.5319
  206.6000      54.88     2.5320
  206.7000      52.45     2.5320
  206.8000      54.03     2.5320
  206.9000      51.61     2.4921
  207.0000      53.19     2.4921
  207.1000      52.57     2.4921
  207.2000      54.14     2.4922
  207.3000      51.72     2.4922
  207.4000      53.30     2.5522
  207.5000      54.88     2.5522
  207.6000      52.46     2.5523
  207.7000      54.04     2.5523
  207.8000      51.62     2.5523
  207.9000      53.20     2.5124
  208.0000      54.77     2.5124
  208.1000      54.15     2.5124
  208.2000      51.73     2.5125
  208.3000      53.31     2.5125
  208.4000      50.89     2.4725
  208.5000      52.47     2.4725
  208.6000      54.05     2.4726
  208.7000      51.63     2.4726
  208.8000      53.21     2.4726
  208.9000      50.79     2.5327
  209.0000      52.37     2.5327
  209.1000      51.75     2.5327
  209.2000      53.33     2.5328
  209.3000      50.91     2.5328
  209.4000      52.49     2.4928
  209.5000      54.07     2.4928
  209.6000      51.65     2.4929
  209.7000      53.23     2.4929
  209.8000      50.81     2.4929
  209.9000      52.39     2.4930
  210.0000      53.97     2.5530
  210.1000      53.35     2.5530
  210.2000      50.93     2.5531
  210.3000      52.51     2.5531
  210.4000      54.09     2.5531
  210.5000      51.67     2.5131
  210.6000      53.25     2.5132
  210.7000      50.83     2.5132
  210.8000      52.41     2.5132
  210.9000      53.99     2.5133
  211.0000      51.58     2.4733
  211.1000      50.96     2.4733
  211.2000      52.54     2.4734
  211.3000      54.12     2.4734
  211.4000      51.70     2.4734
  211.5000      53.28     2.5334
  211.6000      50.86     2.5335
  211.7000      52.45     2.5335
  211.8000      54.03     2.5335
  211.9000      51.61     2.5336
  212.0000      53.19     2.4936
  212.1000      52.57     2.4936
  212.2000      50.15     2.4937
  212.3000      51.74     2.4937
  212.4000      53.32     2.4937
  212.5000      50.90     2.5537
  212.6000      52.48     2.5538
  212.7000      50.06     2.5538
  212.8000      51.65     2.5538
  212.9000      53.23     2.5539
  213.0000      50.81     2.5139
  213.1000      50.19     2.5139
  213.2000      51.78     2.5140
  213.3000      53.36     2.5140
  213.4000      50.94     2.5140
  213.5000      52.53     2.4740
  213.6000      50.11     2.4741
  213.7000      51.69     2.4741
  213.8000      53.27     2.4741
  213.9000      50.86     2.4742
  214.0000      52.44     2.5342
  214.1000      51.82     2.5342
  214.2000      53.41     2.5343
  214.3000      50.99     2.5343
  214.4000      52.57     2.5343
  214.5000      50.16     2.5343
  214.6000      51.74     2.4944
  214.7000      53.33     2.4944
  214.8000      50.91     2.4944
  214.9000      52.49     2.4945
  215.0000      50.08     2.4945
  215.1000      53.46     2.5545
  215.2000      51.04     2.5546
  215.3000      52.63     2.5546
  215.4000      50.21     2.5546
  215.5000      51.80     2.5546
  215.6000      53.38     2.5147
  215.7000      50.97     2.5147
  215.8000      52.55     2.5147
  215.9000      50.14     2.5148
  216.0000      51.72     2.5148
  216.1000      51.10     2.4748
  216.2000      52.69     2.4749
  216.3000      50.27     2.4749
  216.4000      51.86     2.4749
  216.5000      49.44     2.4749
  216.6000      51.03     2.5350
  216.7000      52.61     2.5350
  216.8000      50.20     2.5350
  216.9000      51.79     2.5351
  217.0000      49.37     2.5351
  217.1000      52.76     2.4951
  217.2000      50.34     2.4952
  217.3000      51.93     2.4952
  217.4000      49.51     2.4952
  217.5000      51.10     2.4952
  217.6000      52.68     2.5553
  217.7000      50.27     2.5553
  217.8000      51.86     2.5553
  217.9000      49.44     2.5554
  218.0000      51.03     2.5554
  218.1000      50.42     2.5154
  218.2000      52.00     2.5155
  218.3000      49.59     2.5155
  218.4000      51.17     2.5155
  218.5000      52.76     2.5155
  218.6000      50.35     2.5156
